[{"id":"01001","name":"Autauga County","geoLevel":"COUNTY","rank":925,"score":0.2497944175116716,"customerCount":0,"inGeofence":false,"lat":32.534925,"lng":-86.642747,"countyID":"01001","msaID":"33860","msaName":"Montgomery, AL"},{"id":"01003","name":"Baldwin County","geoLevel":"COUNTY","rank":371,"score":0.3066428062987185,"customerCount":0,"inGeofence":false,"lat":30.727498,"lng":-87.72253,"countyID":"01003","msaID":"19300","msaName":"Daphne-Fairhope-Foley, AL"},{"id":"01005","name":"Barbour County","geoLevel":"COUNTY","rank":1737,"score":0.2174149053151055,"customerCount":0,"inGeofence":false,"lat":31.869603,"lng":-85.393206,"countyID":"01005","msaID":null,"msaName":null},{"id":"01007","name":"Bibb County","geoLevel":"COUNTY","rank":1044,"score":0.2420953932999907,"customerCount":0,"inGeofence":false,"lat":32.998648,"lng":-87.126455,"countyID":"01007","msaID":"13820","msaName":"Birmingham-Hoover, AL"},{"id":"01009","name":"Blount County","geoLevel":"COUNTY","rank":535,"score":0.2799499245619751,"customerCount":0,"inGeofence":false,"lat":33.980874,"lng":-86.567376,"countyID":"01009","msaID":"13820","msaName":"Birmingham-Hoover, AL"},{"id":"01011","name":"Bullock County","geoLevel":"COUNTY","rank":1883,"score":0.2140313847733042,"customerCount":0,"inGeofence":false,"lat":32.100563,"lng":-85.715701,"countyID":"01011","msaID":null,"msaName":null},{"id":"01013","name":"Butler County","geoLevel":"COUNTY","rank":1226,"score":0.2343134766712858,"customerCount":0,"inGeofence":false,"lat":31.752446,"lng":-86.680291,"countyID":"01013","msaID":null,"msaName":null},{"id":"01015","name":"Calhoun County","geoLevel":"COUNTY","rank":691,"score":0.2657754585892968,"customerCount":0,"inGeofence":false,"lat":33.771433,"lng":-85.826038,"countyID":"01015","msaID":"11500","msaName":"Anniston-Oxford, AL"},{"id":"01017","name":"Chambers County","geoLevel":"COUNTY","rank":1519,"score":0.2230961476697122,"customerCount":0,"inGeofence":false,"lat":32.914372,"lng":-85.392041,"countyID":"01017","msaID":null,"msaName":null},{"id":"01019","name":"Cherokee County","geoLevel":"COUNTY","rank":2054,"score":0.2100221451920749,"customerCount":0,"inGeofence":false,"lat":34.175955,"lng":-85.603809,"countyID":"01019","msaID":null,"msaName":null},{"id":"01021","name":"Chilton County","geoLevel":"COUNTY","rank":727,"score":0.2616417081172216,"customerCount":0,"inGeofence":false,"lat":32.847856,"lng":-86.718816,"countyID":"01021","msaID":"13820","msaName":"Birmingham-Hoover, AL"},{"id":"01023","name":"Choctaw County","geoLevel":"COUNTY","rank":915,"score":0.2508864163100026,"customerCount":0,"inGeofence":false,"lat":32.019622,"lng":-88.263205,"countyID":"01023","msaID":null,"msaName":null},{"id":"01025","name":"Clarke County","geoLevel":"COUNTY","rank":1292,"score":0.2319444984674329,"customerCount":0,"inGeofence":false,"lat":31.67666,"lng":-87.830816,"countyID":"01025","msaID":null,"msaName":null},{"id":"01027","name":"Clay County","geoLevel":"COUNTY","rank":1810,"score":0.2158262312066347,"customerCount":0,"inGeofence":false,"lat":33.269092,"lng":-85.860549,"countyID":"01027","msaID":null,"msaName":null},{"id":"01029","name":"Cleburne County","geoLevel":"COUNTY","rank":1761,"score":0.2168114338008711,"customerCount":0,"inGeofence":false,"lat":33.674564,"lng":-85.518774,"countyID":"01029","msaID":null,"msaName":null},{"id":"01031","name":"Coffee County","geoLevel":"COUNTY","rank":1746,"score":0.2172509805945919,"customerCount":0,"inGeofence":false,"lat":31.402638,"lng":-85.988217,"countyID":"01031","msaID":null,"msaName":null},{"id":"01033","name":"Colbert County","geoLevel":"COUNTY","rank":781,"score":0.2585628845808295,"customerCount":0,"inGeofence":false,"lat":34.700435,"lng":-87.80499,"countyID":"01033","msaID":"22520","msaName":"Florence-Muscle Shoals, AL"},{"id":"01035","name":"Conecuh County","geoLevel":"COUNTY","rank":1146,"score":0.2367110881650533,"customerCount":0,"inGeofence":false,"lat":31.42928,"lng":-86.993671,"countyID":"01035","msaID":null,"msaName":null},{"id":"01037","name":"Coosa County","geoLevel":"COUNTY","rank":2344,"score":0.2013615943801759,"customerCount":0,"inGeofence":false,"lat":32.936234,"lng":-86.247663,"countyID":"01037","msaID":null,"msaName":null},{"id":"01039","name":"Covington County","geoLevel":"COUNTY","rank":1277,"score":0.2326274104625018,"customerCount":0,"inGeofence":false,"lat":31.248494,"lng":-86.45125,"countyID":"01039","msaID":null,"msaName":null},{"id":"01041","name":"Crenshaw County","geoLevel":"COUNTY","rank":1399,"score":0.2269884683295612,"customerCount":0,"inGeofence":false,"lat":31.731504,"lng":-86.313541,"countyID":"01041","msaID":null,"msaName":null},{"id":"01043","name":"Cullman County","geoLevel":"COUNTY","rank":1167,"score":0.2361503385788642,"customerCount":0,"inGeofence":false,"lat":34.131949,"lng":-86.867637,"countyID":"01043","msaID":null,"msaName":null},{"id":"01045","name":"Dale County","geoLevel":"COUNTY","rank":1524,"score":0.2229428638092342,"customerCount":0,"inGeofence":false,"lat":31.431823,"lng":-85.611039,"countyID":"01045","msaID":null,"msaName":null},{"id":"01047","name":"Dallas County","geoLevel":"COUNTY","rank":1418,"score":0.2262757741679041,"customerCount":0,"inGeofence":false,"lat":32.32598,"lng":-87.106478,"countyID":"01047","msaID":null,"msaName":null},{"id":"01049","name":"DeKalb County","geoLevel":"COUNTY","rank":1222,"score":0.2343616701811754,"customerCount":0,"inGeofence":false,"lat":34.459774,"lng":-85.804143,"countyID":"01049","msaID":null,"msaName":null},{"id":"01051","name":"Elmore County","geoLevel":"COUNTY","rank":994,"score":0.2452312742253981,"customerCount":0,"inGeofence":false,"lat":32.596651,"lng":-86.14914,"countyID":"01051","msaID":"33860","msaName":"Montgomery, AL"},{"id":"01053","name":"Escambia County","geoLevel":"COUNTY","rank":1133,"score":0.2372512915639295,"customerCount":0,"inGeofence":false,"lat":31.126129,"lng":-87.161619,"countyID":"01053","msaID":null,"msaName":null},{"id":"01055","name":"Etowah County","geoLevel":"COUNTY","rank":518,"score":0.2818481501482046,"customerCount":0,"inGeofence":false,"lat":34.04526,"lng":-86.034783,"countyID":"01055","msaID":"23460","msaName":"Gadsden, AL"},{"id":"01057","name":"Fayette County","geoLevel":"COUNTY","rank":1220,"score":0.2344212463000416,"customerCount":0,"inGeofence":false,"lat":33.721213,"lng":-87.738861,"countyID":"01057","msaID":null,"msaName":null},{"id":"01059","name":"Franklin County","geoLevel":"COUNTY","rank":1231,"score":0.2342207227495908,"customerCount":0,"inGeofence":false,"lat":34.441678,"lng":-87.843826,"countyID":"01059","msaID":null,"msaName":null},{"id":"01061","name":"Geneva County","geoLevel":"COUNTY","rank":748,"score":0.2604831092799126,"customerCount":0,"inGeofence":false,"lat":31.095026,"lng":-85.838968,"countyID":"01061","msaID":"20020","msaName":"Dothan, AL"},{"id":"01063","name":"Greene County","geoLevel":"COUNTY","rank":743,"score":0.2609157066587763,"customerCount":0,"inGeofence":false,"lat":32.853142,"lng":-87.952238,"countyID":"01063","msaID":"46220","msaName":"Tuscaloosa, AL"},{"id":"01065","name":"Hale County","geoLevel":"COUNTY","rank":714,"score":0.2631611980668686,"customerCount":0,"inGeofence":false,"lat":32.762679,"lng":-87.629122,"countyID":"01065","msaID":"46220","msaName":"Tuscaloosa, AL"},{"id":"01067","name":"Henry County","geoLevel":"COUNTY","rank":681,"score":0.266348854730402,"customerCount":0,"inGeofence":false,"lat":31.514701,"lng":-85.241415,"countyID":"01067","msaID":"20020","msaName":"Dothan, AL"},{"id":"01069","name":"Houston County","geoLevel":"COUNTY","rank":698,"score":0.2652400403872921,"customerCount":0,"inGeofence":false,"lat":31.153194,"lng":-85.302515,"countyID":"01069","msaID":"20020","msaName":"Dothan, AL"},{"id":"01071","name":"Jackson County","geoLevel":"COUNTY","rank":1196,"score":0.2351915557232475,"customerCount":0,"inGeofence":false,"lat":34.779422,"lng":-85.999303,"countyID":"01071","msaID":null,"msaName":null},{"id":"01073","name":"Jefferson County","geoLevel":"COUNTY","rank":124,"score":0.4926165672778593,"customerCount":0,"inGeofence":false,"lat":33.554337,"lng":-86.8964,"countyID":"01073","msaID":"13820","msaName":"Birmingham-Hoover, AL"},{"id":"01075","name":"Lamar County","geoLevel":"COUNTY","rank":1217,"score":0.2345074090539605,"customerCount":0,"inGeofence":false,"lat":33.779214,"lng":-88.096907,"countyID":"01075","msaID":null,"msaName":null},{"id":"01077","name":"Lauderdale County","geoLevel":"COUNTY","rank":545,"score":0.2788620078135955,"customerCount":0,"inGeofence":false,"lat":34.901375,"lng":-87.653997,"countyID":"01077","msaID":"22520","msaName":"Florence-Muscle Shoals, AL"},{"id":"01079","name":"Lawrence County","geoLevel":"COUNTY","rank":851,"score":0.2548226162905244,"customerCount":0,"inGeofence":false,"lat":34.52166,"lng":-87.311051,"countyID":"01079","msaID":"19460","msaName":"Decatur, AL"},{"id":"01081","name":"Lee County","geoLevel":"COUNTY","rank":488,"score":0.285818245186106,"customerCount":0,"inGeofence":false,"lat":32.601142,"lng":-85.355569,"countyID":"01081","msaID":"12220","msaName":"Auburn-Opelika, AL"},{"id":"01083","name":"Limestone County","geoLevel":"COUNTY","rank":677,"score":0.266554810175234,"customerCount":0,"inGeofence":false,"lat":34.810076,"lng":-86.981376,"countyID":"01083","msaID":"26620","msaName":"Huntsville, AL"},{"id":"01085","name":"Lowndes County","geoLevel":"COUNTY","rank":731,"score":0.2614379282442497,"customerCount":0,"inGeofence":false,"lat":32.154758,"lng":-86.650105,"countyID":"01085","msaID":"33860","msaName":"Montgomery, AL"},{"id":"01087","name":"Macon County","geoLevel":"COUNTY","rank":1151,"score":0.2366768505253429,"customerCount":0,"inGeofence":false,"lat":32.385978,"lng":-85.692667,"countyID":"01087","msaID":null,"msaName":null},{"id":"01089","name":"Madison County","geoLevel":"COUNTY","rank":143,"score":0.4660263806299239,"customerCount":0,"inGeofence":false,"lat":34.763101,"lng":-86.550206,"countyID":"01089","msaID":"26620","msaName":"Huntsville, AL"},{"id":"01091","name":"Marengo County","geoLevel":"COUNTY","rank":1794,"score":0.216084229326446,"customerCount":0,"inGeofence":false,"lat":32.247611,"lng":-87.789523,"countyID":"01091","msaID":null,"msaName":null},{"id":"01093","name":"Marion County","geoLevel":"COUNTY","rank":1252,"score":0.2335910464461751,"customerCount":0,"inGeofence":false,"lat":34.136558,"lng":-87.88715,"countyID":"01093","msaID":null,"msaName":null},{"id":"01095","name":"Marshall County","geoLevel":"COUNTY","rank":1058,"score":0.2409448475700396,"customerCount":0,"inGeofence":false,"lat":34.366962,"lng":-86.306635,"countyID":"01095","msaID":null,"msaName":null},{"id":"01097","name":"Mobile County","geoLevel":"COUNTY","rank":126,"score":0.4865285353691967,"customerCount":0,"inGeofence":false,"lat":30.787235,"lng":-88.205806,"countyID":"01097","msaID":"33660","msaName":"Mobile, AL"},{"id":"01099","name":"Monroe County","geoLevel":"COUNTY","rank":988,"score":0.2455920569641792,"customerCount":0,"inGeofence":false,"lat":31.570835,"lng":-87.365448,"countyID":"01099","msaID":null,"msaName":null},{"id":"01101","name":"Montgomery County","geoLevel":"COUNTY","rank":402,"score":0.2998739404089445,"customerCount":0,"inGeofence":false,"lat":32.220265,"lng":-86.207619,"countyID":"01101","msaID":"33860","msaName":"Montgomery, AL"},{"id":"01103","name":"Morgan County","geoLevel":"COUNTY","rank":713,"score":0.2631742154254532,"customerCount":0,"inGeofence":false,"lat":34.453477,"lng":-86.852917,"countyID":"01103","msaID":"19460","msaName":"Decatur, AL"},{"id":"01105","name":"Perry County","geoLevel":"COUNTY","rank":1772,"score":0.2166675434638281,"customerCount":0,"inGeofence":false,"lat":32.638471,"lng":-87.294403,"countyID":"01105","msaID":null,"msaName":null},{"id":"01107","name":"Pickens County","geoLevel":"COUNTY","rank":693,"score":0.2657102539866445,"customerCount":0,"inGeofence":false,"lat":33.280894,"lng":-88.088699,"countyID":"01107","msaID":"46220","msaName":"Tuscaloosa, AL"},{"id":"01109","name":"Pike County","geoLevel":"COUNTY","rank":1569,"score":0.221733475193959,"customerCount":0,"inGeofence":false,"lat":31.802726,"lng":-85.940914,"countyID":"01109","msaID":null,"msaName":null},{"id":"01111","name":"Randolph County","geoLevel":"COUNTY","rank":1321,"score":0.2304349041611366,"customerCount":0,"inGeofence":false,"lat":33.293793,"lng":-85.459077,"countyID":"01111","msaID":null,"msaName":null},{"id":"01113","name":"Russell County","geoLevel":"COUNTY","rank":638,"score":0.2707191403401081,"customerCount":0,"inGeofence":false,"lat":32.288384,"lng":-85.184968,"countyID":"01113","msaID":"17980","msaName":"Columbus, GA-AL"},{"id":"01115","name":"St. Clair County","geoLevel":"COUNTY","rank":1019,"score":0.2439442841841258,"customerCount":0,"inGeofence":false,"lat":33.715738,"lng":-86.3146,"countyID":"01115","msaID":"13820","msaName":"Birmingham-Hoover, AL"},{"id":"01117","name":"Shelby County","geoLevel":"COUNTY","rank":875,"score":0.253099607667232,"customerCount":0,"inGeofence":false,"lat":33.264276,"lng":-86.660648,"countyID":"01117","msaID":"13820","msaName":"Birmingham-Hoover, AL"},{"id":"01119","name":"Sumter County","geoLevel":"COUNTY","rank":837,"score":0.2552490337550087,"customerCount":0,"inGeofence":false,"lat":32.591022,"lng":-88.198799,"countyID":"01119","msaID":null,"msaName":null},{"id":"01121","name":"Talladega County","geoLevel":"COUNTY","rank":1653,"score":0.2191243641305223,"customerCount":0,"inGeofence":false,"lat":33.380067,"lng":-86.165912,"countyID":"01121","msaID":null,"msaName":null},{"id":"01123","name":"Tallapoosa County","geoLevel":"COUNTY","rank":1557,"score":0.2219752793445569,"customerCount":0,"inGeofence":false,"lat":32.862424,"lng":-85.797502,"countyID":"01123","msaID":null,"msaName":null},{"id":"01125","name":"Tuscaloosa County","geoLevel":"COUNTY","rank":294,"score":0.329394030566053,"customerCount":0,"inGeofence":false,"lat":33.289556,"lng":-87.525031,"countyID":"01125","msaID":"46220","msaName":"Tuscaloosa, AL"},{"id":"01127","name":"Walker County","geoLevel":"COUNTY","rank":1185,"score":0.2356055529937237,"customerCount":0,"inGeofence":false,"lat":33.803339,"lng":-87.297362,"countyID":"01127","msaID":null,"msaName":null},{"id":"01129","name":"Washington County","geoLevel":"COUNTY","rank":773,"score":0.2589062749058504,"customerCount":0,"inGeofence":false,"lat":31.407613,"lng":-88.207882,"countyID":"01129","msaID":"33660","msaName":"Mobile, AL"},{"id":"01131","name":"Wilcox County","geoLevel":"COUNTY","rank":1382,"score":0.2278510130586445,"customerCount":0,"inGeofence":false,"lat":31.989243,"lng":-87.308203,"countyID":"01131","msaID":null,"msaName":null},{"id":"01133","name":"Winston County","geoLevel":"COUNTY","rank":1103,"score":0.2385901314461265,"customerCount":0,"inGeofence":false,"lat":34.149226,"lng":-87.373694,"countyID":"01133","msaID":null,"msaName":null},{"id":"02013","name":"Aleutians East Borough","geoLevel":"COUNTY","rank":3094,"score":0.1468852185397767,"customerCount":0,"inGeofence":false,"lat":55.366506,"lng":-161.981348,"countyID":"02013","msaID":null,"msaName":null},{"id":"02016","name":"Aleutians West Census Area","geoLevel":"COUNTY","rank":3006,"score":0.1680204913487897,"customerCount":0,"inGeofence":false,"lat":52.797997,"lng":-106.605733,"countyID":"02016","msaID":null,"msaName":null},{"id":"02020","name":"Anchorage Municipality","geoLevel":"COUNTY","rank":64,"score":0.7363195794705688,"customerCount":0,"inGeofence":false,"lat":61.150826,"lng":-149.109144,"countyID":"02020","msaID":"11260","msaName":"Anchorage, AK"},{"id":"02050","name":"Bethel Census Area","geoLevel":"COUNTY","rank":3133,"score":0.1296964635631924,"customerCount":0,"inGeofence":false,"lat":60.913156,"lng":-159.818624,"countyID":"02050","msaID":null,"msaName":null},{"id":"02060","name":"Bristol Bay Borough","geoLevel":"COUNTY","rank":2932,"score":0.1781965125008115,"customerCount":0,"inGeofence":false,"lat":58.743865,"lng":-156.699996,"countyID":"02060","msaID":null,"msaName":null},{"id":"02068","name":"Denali Borough","geoLevel":"COUNTY","rank":3065,"score":0.1529189074830639,"customerCount":0,"inGeofence":false,"lat":63.671508,"lng":-150.011689,"countyID":"02068","msaID":null,"msaName":null},{"id":"02070","name":"Dillingham Census Area","geoLevel":"COUNTY","rank":3034,"score":0.1628497011677909,"customerCount":0,"inGeofence":false,"lat":59.799063,"lng":-158.235122,"countyID":"02070","msaID":null,"msaName":null},{"id":"02090","name":"Fairbanks North Star Borough","geoLevel":"COUNTY","rank":3150,"score":0.1196636259835446,"customerCount":0,"inGeofence":false,"lat":64.807769,"lng":-146.565446,"countyID":"02090","msaID":"21820","msaName":"Fairbanks, AK"},{"id":"02100","name":"Haines Borough","geoLevel":"COUNTY","rank":3030,"score":0.1638036396012411,"customerCount":0,"inGeofence":false,"lat":59.11987,"lng":-135.499973,"countyID":"02100","msaID":null,"msaName":null},{"id":"02105","name":"Hoonah-Angoon Census Area","geoLevel":"COUNTY","rank":2688,"score":0.193038297646245,"customerCount":0,"inGeofence":false,"lat":58.28838,"lng":-135.643039,"countyID":"02105","msaID":null,"msaName":null},{"id":"02110","name":"Juneau City and Borough","geoLevel":"COUNTY","rank":762,"score":0.2596142303809093,"customerCount":0,"inGeofence":false,"lat":58.454629,"lng":-134.173956,"countyID":"02110","msaID":null,"msaName":null},{"id":"02122","name":"Kenai Peninsula Borough","geoLevel":"COUNTY","rank":3009,"score":0.167016641857665,"customerCount":0,"inGeofence":false,"lat":60.265417,"lng":-151.565274,"countyID":"02122","msaID":null,"msaName":null},{"id":"02130","name":"Ketchikan Gateway Borough","geoLevel":"COUNTY","rank":951,"score":0.2483883844560524,"customerCount":0,"inGeofence":false,"lat":55.585164,"lng":-130.928825,"countyID":"02130","msaID":null,"msaName":null},{"id":"02150","name":"Kodiak Island Borough","geoLevel":"COUNTY","rank":2939,"score":0.1775778525065028,"customerCount":0,"inGeofence":false,"lat":57.680721,"lng":-153.797251,"countyID":"02150","msaID":null,"msaName":null},{"id":"02158","name":"Kusilvak Census Area","geoLevel":"COUNTY","rank":2987,"score":0.1721041317591202,"customerCount":0,"inGeofence":false,"lat":62.155023,"lng":-163.382655,"countyID":"02158","msaID":null,"msaName":null},{"id":"02164","name":"Lake and Peninsula Borough","geoLevel":"COUNTY","rank":3053,"score":0.1581404856734697,"customerCount":0,"inGeofence":false,"lat":58.654671,"lng":-156.189187,"countyID":"02164","msaID":null,"msaName":null},{"id":"02170","name":"Matanuska-Susitna Borough","geoLevel":"COUNTY","rank":3181,"score":0.07077754036724193,"customerCount":0,"inGeofence":false,"lat":62.315608,"lng":-149.57299,"countyID":"02170","msaID":"11260","msaName":"Anchorage, AK"},{"id":"02180","name":"Nome Census Area","geoLevel":"COUNTY","rank":3112,"score":0.1397343287856652,"customerCount":0,"inGeofence":false,"lat":64.911094,"lng":-164.027275,"countyID":"02180","msaID":null,"msaName":null},{"id":"02185","name":"North Slope Borough","geoLevel":"COUNTY","rank":3169,"score":0.1020933429921112,"customerCount":0,"inGeofence":false,"lat":69.312155,"lng":-153.481109,"countyID":"02185","msaID":null,"msaName":null},{"id":"02188","name":"Northwest Arctic Borough","geoLevel":"COUNTY","rank":3109,"score":0.1421460473909062,"customerCount":0,"inGeofence":false,"lat":67.053006,"lng":-159.721047,"countyID":"02188","msaID":null,"msaName":null},{"id":"02195","name":"Petersburg Borough","geoLevel":"COUNTY","rank":2726,"score":0.1918540136767045,"customerCount":0,"inGeofence":false,"lat":57.11951,"lng":-132.934476,"countyID":"02195","msaID":null,"msaName":null},{"id":"02198","name":"Prince of Wales-Hyder Census Area","geoLevel":"COUNTY","rank":2673,"score":0.1935630189030283,"customerCount":0,"inGeofence":false,"lat":55.799739,"lng":-133.019227,"countyID":"02198","msaID":null,"msaName":null},{"id":"02220","name":"Sitka City and Borough","geoLevel":"COUNTY","rank":2650,"score":0.1943449371353527,"customerCount":0,"inGeofence":false,"lat":57.240118,"lng":-135.315302,"countyID":"02220","msaID":null,"msaName":null},{"id":"02230","name":"Skagway Municipality","geoLevel":"COUNTY","rank":2964,"score":0.1744611331497214,"customerCount":0,"inGeofence":false,"lat":59.562935,"lng":-135.336253,"countyID":"02230","msaID":null,"msaName":null},{"id":"02240","name":"Southeast Fairbanks Census Area","geoLevel":"COUNTY","rank":3059,"score":0.1565735377625659,"customerCount":0,"inGeofence":false,"lat":63.876166,"lng":-143.213036,"countyID":"02240","msaID":null,"msaName":null},{"id":"02275","name":"Wrangell City and Borough","geoLevel":"COUNTY","rank":2928,"score":0.1792445565418711,"customerCount":0,"inGeofence":false,"lat":56.331719,"lng":-132.022324,"countyID":"02275","msaID":null,"msaName":null},{"id":"02282","name":"Yakutat City and Borough","geoLevel":"COUNTY","rank":3056,"score":0.1573051529642247,"customerCount":0,"inGeofence":false,"lat":59.888912,"lng":-140.357742,"countyID":"02282","msaID":null,"msaName":null},{"id":"02290","name":"Yukon-Koyukuk Census Area","geoLevel":"COUNTY","rank":3182,"score":0.06753538073290447,"customerCount":0,"inGeofence":false,"lat":65.508664,"lng":-151.38962,"countyID":"02290","msaID":null,"msaName":null},{"id":"04001","name":"Apache County","geoLevel":"COUNTY","rank":1392,"score":0.2273458593413618,"customerCount":0,"inGeofence":false,"lat":35.395547,"lng":-109.488858,"countyID":"04001","msaID":null,"msaName":null},{"id":"04003","name":"Cochise County","geoLevel":"COUNTY","rank":770,"score":0.2591356773261956,"customerCount":0,"inGeofence":false,"lat":31.879663,"lng":-109.751285,"countyID":"04003","msaID":"43420","msaName":"Sierra Vista-Douglas, AZ"},{"id":"04005","name":"Coconino County","geoLevel":"COUNTY","rank":961,"score":0.2475884917062705,"customerCount":0,"inGeofence":false,"lat":35.838737,"lng":-111.770529,"countyID":"04005","msaID":"22380","msaName":"Flagstaff, AZ"},{"id":"04007","name":"Gila County","geoLevel":"COUNTY","rank":1995,"score":0.2116631193237939,"customerCount":0,"inGeofence":false,"lat":33.799704,"lng":-110.811645,"countyID":"04007","msaID":null,"msaName":null},{"id":"04009","name":"Graham County","geoLevel":"COUNTY","rank":1945,"score":0.2127147026825558,"customerCount":0,"inGeofence":false,"lat":32.932671,"lng":-109.887467,"countyID":"04009","msaID":null,"msaName":null},{"id":"04011","name":"Greenlee County","geoLevel":"COUNTY","rank":2022,"score":0.2110475929255743,"customerCount":0,"inGeofence":false,"lat":33.215388,"lng":-109.240364,"countyID":"04011","msaID":null,"msaName":null},{"id":"04012","name":"La Paz County","geoLevel":"COUNTY","rank":1929,"score":0.2130084110315303,"customerCount":0,"inGeofence":false,"lat":33.729405,"lng":-113.981594,"countyID":"04012","msaID":null,"msaName":null},{"id":"04013","name":"Maricopa County","geoLevel":"COUNTY","rank":16,"score":0.9943505053610299,"customerCount":0,"inGeofence":false,"lat":33.349034,"lng":-112.491516,"countyID":"04013","msaID":"38060","msaName":"Phoenix-Mesa-Chandler, AZ"},{"id":"04015","name":"Mohave County","geoLevel":"COUNTY","rank":457,"score":0.2899056086743242,"customerCount":0,"inGeofence":false,"lat":35.704065,"lng":-113.757915,"countyID":"04015","msaID":"29420","msaName":"Lake Havasu City-Kingman, AZ"},{"id":"04017","name":"Navajo County","geoLevel":"COUNTY","rank":1035,"score":0.2425640302028675,"customerCount":0,"inGeofence":false,"lat":35.399551,"lng":-110.321425,"countyID":"04017","msaID":null,"msaName":null},{"id":"04019","name":"Pima County","geoLevel":"COUNTY","rank":82,"score":0.6293782358868859,"customerCount":0,"inGeofence":false,"lat":32.09745,"lng":-111.78984,"countyID":"04019","msaID":"46060","msaName":"Tucson, AZ"},{"id":"04021","name":"Pinal County","geoLevel":"COUNTY","rank":447,"score":0.2919526200641321,"customerCount":0,"inGeofence":false,"lat":32.904368,"lng":-111.344761,"countyID":"04021","msaID":"38060","msaName":"Phoenix-Mesa-Chandler, AZ"},{"id":"04023","name":"Santa Cruz County","geoLevel":"COUNTY","rank":1362,"score":0.2289391039552498,"customerCount":0,"inGeofence":false,"lat":31.526011,"lng":-110.846549,"countyID":"04023","msaID":null,"msaName":null},{"id":"04025","name":"Yavapai County","geoLevel":"COUNTY","rank":640,"score":0.2704552079932761,"customerCount":0,"inGeofence":false,"lat":34.599841,"lng":-112.553736,"countyID":"04025","msaID":"39150","msaName":"Prescott Valley-Prescott, AZ"},{"id":"04027","name":"Yuma County","geoLevel":"COUNTY","rank":515,"score":0.28206777148822,"customerCount":0,"inGeofence":false,"lat":32.769637,"lng":-113.905628,"countyID":"04027","msaID":"49740","msaName":"Yuma, AZ"},{"id":"05001","name":"Arkansas County","geoLevel":"COUNTY","rank":1708,"score":0.2179963370272927,"customerCount":0,"inGeofence":false,"lat":34.289199,"lng":-91.374237,"countyID":"05001","msaID":null,"msaName":null},{"id":"05003","name":"Ashley County","geoLevel":"COUNTY","rank":1592,"score":0.2208631809493116,"customerCount":0,"inGeofence":false,"lat":33.191214,"lng":-91.76846,"countyID":"05003","msaID":null,"msaName":null},{"id":"05005","name":"Baxter County","geoLevel":"COUNTY","rank":617,"score":0.2721699402334766,"customerCount":0,"inGeofence":false,"lat":36.287183,"lng":-92.336968,"countyID":"05005","msaID":null,"msaName":null},{"id":"05007","name":"Benton County","geoLevel":"COUNTY","rank":268,"score":0.3403540414969412,"customerCount":0,"inGeofence":false,"lat":36.338745,"lng":-94.256137,"countyID":"05007","msaID":"22220","msaName":"Fayetteville-Springdale-Rogers, AR"},{"id":"05009","name":"Boone County","geoLevel":"COUNTY","rank":834,"score":0.2553215816132056,"customerCount":0,"inGeofence":false,"lat":36.308645,"lng":-93.091548,"countyID":"05009","msaID":null,"msaName":null},{"id":"05011","name":"Bradley County","geoLevel":"COUNTY","rank":826,"score":0.2557690001488289,"customerCount":0,"inGeofence":false,"lat":33.466437,"lng":-92.162366,"countyID":"05011","msaID":null,"msaName":null},{"id":"05013","name":"Calhoun County","geoLevel":"COUNTY","rank":1612,"score":0.2203145003427578,"customerCount":0,"inGeofence":false,"lat":33.558078,"lng":-92.503032,"countyID":"05013","msaID":null,"msaName":null},{"id":"05015","name":"Carroll County","geoLevel":"COUNTY","rank":725,"score":0.261822765430219,"customerCount":0,"inGeofence":false,"lat":36.341083,"lng":-93.538171,"countyID":"05015","msaID":null,"msaName":null},{"id":"05017","name":"Chicot County","geoLevel":"COUNTY","rank":871,"score":0.253477274113424,"customerCount":0,"inGeofence":false,"lat":33.267008,"lng":-91.293687,"countyID":"05017","msaID":null,"msaName":null},{"id":"05019","name":"Clark County","geoLevel":"COUNTY","rank":1464,"score":0.2246356970040291,"customerCount":0,"inGeofence":false,"lat":34.050927,"lng":-93.176355,"countyID":"05019","msaID":null,"msaName":null},{"id":"05021","name":"Clay County","geoLevel":"COUNTY","rank":1208,"score":0.2347243871222944,"customerCount":0,"inGeofence":false,"lat":36.368353,"lng":-90.41737,"countyID":"05021","msaID":null,"msaName":null},{"id":"05023","name":"Cleburne County","geoLevel":"COUNTY","rank":814,"score":0.2562564193669832,"customerCount":0,"inGeofence":false,"lat":35.538189,"lng":-92.026718,"countyID":"05023","msaID":null,"msaName":null},{"id":"05025","name":"Cleveland County","geoLevel":"COUNTY","rank":1141,"score":0.2367878894856956,"customerCount":0,"inGeofence":false,"lat":33.898385,"lng":-92.185139,"countyID":"05025","msaID":"38220","msaName":"Pine Bluff, AR"},{"id":"05027","name":"Columbia County","geoLevel":"COUNTY","rank":722,"score":0.2621973082056299,"customerCount":0,"inGeofence":false,"lat":33.214292,"lng":-93.227339,"countyID":"05027","msaID":null,"msaName":null},{"id":"05029","name":"Conway County","geoLevel":"COUNTY","rank":829,"score":0.2555521833112719,"customerCount":0,"inGeofence":false,"lat":35.262383,"lng":-92.701465,"countyID":"05029","msaID":null,"msaName":null},{"id":"05031","name":"Craighead County","geoLevel":"COUNTY","rank":416,"score":0.2973759618842657,"customerCount":0,"inGeofence":false,"lat":35.830818,"lng":-90.632858,"countyID":"05031","msaID":"27860","msaName":"Jonesboro, AR"},{"id":"05033","name":"Crawford County","geoLevel":"COUNTY","rank":892,"score":0.2521796241758318,"customerCount":0,"inGeofence":false,"lat":35.587986,"lng":-94.242898,"countyID":"05033","msaID":"22900","msaName":"Fort Smith, AR-OK"},{"id":"05035","name":"Crittenden County","geoLevel":"COUNTY","rank":604,"score":0.2732812630014717,"customerCount":0,"inGeofence":false,"lat":35.205641,"lng":-90.307835,"countyID":"05035","msaID":"32820","msaName":"Memphis, TN-MS-AR"},{"id":"05037","name":"Cross County","geoLevel":"COUNTY","rank":1727,"score":0.2176498607217967,"customerCount":0,"inGeofence":false,"lat":35.295741,"lng":-90.771149,"countyID":"05037","msaID":null,"msaName":null},{"id":"05039","name":"Dallas County","geoLevel":"COUNTY","rank":2235,"score":0.2040306117665671,"customerCount":0,"inGeofence":false,"lat":33.9699,"lng":-92.654397,"countyID":"05039","msaID":null,"msaName":null},{"id":"05041","name":"Desha County","geoLevel":"COUNTY","rank":1149,"score":0.2366814421419458,"customerCount":0,"inGeofence":false,"lat":33.830985,"lng":-91.254985,"countyID":"05041","msaID":null,"msaName":null},{"id":"05043","name":"Drew County","geoLevel":"COUNTY","rank":1144,"score":0.2367496438908287,"customerCount":0,"inGeofence":false,"lat":33.589431,"lng":-91.719964,"countyID":"05043","msaID":null,"msaName":null},{"id":"05045","name":"Faulkner County","geoLevel":"COUNTY","rank":539,"score":0.279233599078782,"customerCount":0,"inGeofence":false,"lat":35.147029,"lng":-92.332038,"countyID":"05045","msaID":"30780","msaName":"Little Rock-North Little Rock-Conway, AR"},{"id":"05047","name":"Franklin County","geoLevel":"COUNTY","rank":688,"score":0.2659027134364357,"customerCount":0,"inGeofence":false,"lat":35.512383,"lng":-93.890578,"countyID":"05047","msaID":"22900","msaName":"Fort Smith, AR-OK"},{"id":"05049","name":"Fulton County","geoLevel":"COUNTY","rank":716,"score":0.26300361947576,"customerCount":0,"inGeofence":false,"lat":36.381663,"lng":-91.818274,"countyID":"05049","msaID":null,"msaName":null},{"id":"05051","name":"Garland County","geoLevel":"COUNTY","rank":413,"score":0.2981881909576938,"customerCount":0,"inGeofence":false,"lat":34.576727,"lng":-93.150405,"countyID":"05051","msaID":"26300","msaName":"Hot Springs, AR"},{"id":"05053","name":"Grant County","geoLevel":"COUNTY","rank":1161,"score":0.2362982766652101,"customerCount":0,"inGeofence":false,"lat":34.290049,"lng":-92.42365,"countyID":"05053","msaID":"30780","msaName":"Little Rock-North Little Rock-Conway, AR"},{"id":"05055","name":"Greene County","geoLevel":"COUNTY","rank":1064,"score":0.2406219714155717,"customerCount":0,"inGeofence":false,"lat":36.117692,"lng":-90.559072,"countyID":"05055","msaID":null,"msaName":null},{"id":"05057","name":"Hempstead County","geoLevel":"COUNTY","rank":718,"score":0.2626584606626213,"customerCount":0,"inGeofence":false,"lat":33.735367,"lng":-93.668409,"countyID":"05057","msaID":null,"msaName":null},{"id":"05059","name":"Hot Spring County","geoLevel":"COUNTY","rank":1448,"score":0.2249654470040451,"customerCount":0,"inGeofence":false,"lat":34.317657,"lng":-92.946146,"countyID":"05059","msaID":null,"msaName":null},{"id":"05061","name":"Howard County","geoLevel":"COUNTY","rank":1160,"score":0.2363070668379424,"customerCount":0,"inGeofence":false,"lat":34.088822,"lng":-93.993571,"countyID":"05061","msaID":null,"msaName":null},{"id":"05063","name":"Independence County","geoLevel":"COUNTY","rank":793,"score":0.2576195581520463,"customerCount":0,"inGeofence":false,"lat":35.741589,"lng":-91.569688,"countyID":"05063","msaID":null,"msaName":null},{"id":"05065","name":"Izard County","geoLevel":"COUNTY","rank":877,"score":0.2530814272855688,"customerCount":0,"inGeofence":false,"lat":36.094845,"lng":-91.913393,"countyID":"05065","msaID":null,"msaName":null},{"id":"05067","name":"Jackson County","geoLevel":"COUNTY","rank":831,"score":0.2554621749793616,"customerCount":0,"inGeofence":false,"lat":35.599215,"lng":-91.214541,"countyID":"05067","msaID":null,"msaName":null},{"id":"05069","name":"Jefferson County","geoLevel":"COUNTY","rank":707,"score":0.2638551553441216,"customerCount":0,"inGeofence":false,"lat":34.26831,"lng":-91.930387,"countyID":"05069","msaID":"38220","msaName":"Pine Bluff, AR"},{"id":"05071","name":"Johnson County","geoLevel":"COUNTY","rank":799,"score":0.2571689654859676,"customerCount":0,"inGeofence":false,"lat":35.569663,"lng":-93.460081,"countyID":"05071","msaID":null,"msaName":null},{"id":"05073","name":"Lafayette County","geoLevel":"COUNTY","rank":758,"score":0.2597688045840023,"customerCount":0,"inGeofence":false,"lat":33.241642,"lng":-93.60701,"countyID":"05073","msaID":null,"msaName":null},{"id":"05075","name":"Lawrence County","geoLevel":"COUNTY","rank":1178,"score":0.2358877102337843,"customerCount":0,"inGeofence":false,"lat":36.041255,"lng":-91.107023,"countyID":"05075","msaID":null,"msaName":null},{"id":"05077","name":"Lee County","geoLevel":"COUNTY","rank":1686,"score":0.2183481926743607,"customerCount":0,"inGeofence":false,"lat":34.78045,"lng":-90.780814,"countyID":"05077","msaID":null,"msaName":null},{"id":"05079","name":"Lincoln County","geoLevel":"COUNTY","rank":1061,"score":0.240768594053435,"customerCount":0,"inGeofence":false,"lat":33.957035,"lng":-91.73442,"countyID":"05079","msaID":"38220","msaName":"Pine Bluff, AR"},{"id":"05081","name":"Little River County","geoLevel":"COUNTY","rank":543,"score":0.2789855336988563,"customerCount":0,"inGeofence":false,"lat":33.700925,"lng":-94.23524,"countyID":"05081","msaID":"45500","msaName":"Texarkana, TX-AR"},{"id":"05083","name":"Logan County","geoLevel":"COUNTY","rank":752,"score":0.2602316893787047,"customerCount":0,"inGeofence":false,"lat":35.214921,"lng":-93.716588,"countyID":"05083","msaID":null,"msaName":null},{"id":"05085","name":"Lonoke County","geoLevel":"COUNTY","rank":742,"score":0.2609617835777383,"customerCount":0,"inGeofence":false,"lat":34.754279,"lng":-91.888791,"countyID":"05085","msaID":"30780","msaName":"Little Rock-North Little Rock-Conway, AR"},{"id":"05087","name":"Madison County","geoLevel":"COUNTY","rank":368,"score":0.3068834764118474,"customerCount":0,"inGeofence":false,"lat":36.010983,"lng":-93.724569,"countyID":"05087","msaID":"22220","msaName":"Fayetteville-Springdale-Rogers, AR"},{"id":"05089","name":"Marion County","geoLevel":"COUNTY","rank":532,"score":0.2804700607776707,"customerCount":0,"inGeofence":false,"lat":36.268357,"lng":-92.684201,"countyID":"05089","msaID":null,"msaName":null},{"id":"05091","name":"Miller County","geoLevel":"COUNTY","rank":360,"score":0.3081929552210848,"customerCount":0,"inGeofence":false,"lat":33.312454,"lng":-93.892082,"countyID":"05091","msaID":"45500","msaName":"Texarkana, TX-AR"},{"id":"05093","name":"Mississippi County","geoLevel":"COUNTY","rank":1547,"score":0.2222611344468876,"customerCount":0,"inGeofence":false,"lat":35.762488,"lng":-90.052109,"countyID":"05093","msaID":null,"msaName":null},{"id":"05095","name":"Monroe County","geoLevel":"COUNTY","rank":1153,"score":0.2365839531686666,"customerCount":0,"inGeofence":false,"lat":34.677837,"lng":-91.203907,"countyID":"05095","msaID":null,"msaName":null},{"id":"05097","name":"Montgomery County","geoLevel":"COUNTY","rank":1615,"score":0.2202055142179362,"customerCount":0,"inGeofence":false,"lat":34.53891,"lng":-93.659537,"countyID":"05097","msaID":null,"msaName":null},{"id":"05099","name":"Nevada County","geoLevel":"COUNTY","rank":821,"score":0.2559381387202552,"customerCount":0,"inGeofence":false,"lat":33.663985,"lng":-93.307157,"countyID":"05099","msaID":null,"msaName":null},{"id":"05101","name":"Newton County","geoLevel":"COUNTY","rank":2524,"score":0.1974332844452543,"customerCount":0,"inGeofence":false,"lat":35.919991,"lng":-93.217831,"countyID":"05101","msaID":null,"msaName":null},{"id":"05103","name":"Ouachita County","geoLevel":"COUNTY","rank":817,"score":0.2560161082168896,"customerCount":0,"inGeofence":false,"lat":33.593369,"lng":-92.881936,"countyID":"05103","msaID":null,"msaName":null},{"id":"05105","name":"Perry County","geoLevel":"COUNTY","rank":562,"score":0.2767002570282801,"customerCount":0,"inGeofence":false,"lat":34.947565,"lng":-92.931216,"countyID":"05105","msaID":"30780","msaName":"Little Rock-North Little Rock-Conway, AR"},{"id":"05107","name":"Phillips County","geoLevel":"COUNTY","rank":1622,"score":0.21997240813538,"customerCount":0,"inGeofence":false,"lat":34.427495,"lng":-90.848822,"countyID":"05107","msaID":null,"msaName":null},{"id":"05109","name":"Pike County","geoLevel":"COUNTY","rank":1627,"score":0.2198665857173457,"customerCount":0,"inGeofence":false,"lat":34.16352,"lng":-93.656397,"countyID":"05109","msaID":null,"msaName":null},{"id":"05111","name":"Poinsett County","geoLevel":"COUNTY","rank":608,"score":0.2728972824083069,"customerCount":0,"inGeofence":false,"lat":35.574048,"lng":-90.662965,"countyID":"05111","msaID":"27860","msaName":"Jonesboro, AR"},{"id":"05113","name":"Polk County","geoLevel":"COUNTY","rank":767,"score":0.259238555147027,"customerCount":0,"inGeofence":false,"lat":34.485748,"lng":-94.228187,"countyID":"05113","msaID":null,"msaName":null},{"id":"05115","name":"Pope County","geoLevel":"COUNTY","rank":746,"score":0.2605271261847488,"customerCount":0,"inGeofence":false,"lat":35.447761,"lng":-93.034487,"countyID":"05115","msaID":null,"msaName":null},{"id":"05117","name":"Prairie County","geoLevel":"COUNTY","rank":1673,"score":0.2186010418018345,"customerCount":0,"inGeofence":false,"lat":34.829806,"lng":-91.552784,"countyID":"05117","msaID":null,"msaName":null},{"id":"05119","name":"Pulaski County","geoLevel":"COUNTY","rank":139,"score":0.4728016270626183,"customerCount":0,"inGeofence":false,"lat":34.770037,"lng":-92.312002,"countyID":"05119","msaID":"30780","msaName":"Little Rock-North Little Rock-Conway, AR"},{"id":"05121","name":"Randolph County","geoLevel":"COUNTY","rank":1214,"score":0.2346035670738481,"customerCount":0,"inGeofence":false,"lat":36.341509,"lng":-91.027612,"countyID":"05121","msaID":null,"msaName":null},{"id":"05123","name":"St. Francis County","geoLevel":"COUNTY","rank":1655,"score":0.2190720142083665,"customerCount":0,"inGeofence":false,"lat":35.021992,"lng":-90.747828,"countyID":"05123","msaID":null,"msaName":null},{"id":"05125","name":"Saline County","geoLevel":"COUNTY","rank":785,"score":0.2583991558760903,"customerCount":0,"inGeofence":false,"lat":34.64666,"lng":-92.676606,"countyID":"05125","msaID":"30780","msaName":"Little Rock-North Little Rock-Conway, AR"},{"id":"05127","name":"Scott County","geoLevel":"COUNTY","rank":1115,"score":0.2381352997792301,"customerCount":0,"inGeofence":false,"lat":34.860707,"lng":-94.063281,"countyID":"05127","msaID":null,"msaName":null},{"id":"05129","name":"Searcy County","geoLevel":"COUNTY","rank":783,"score":0.258527451865869,"customerCount":0,"inGeofence":false,"lat":35.91093,"lng":-92.699511,"countyID":"05129","msaID":null,"msaName":null},{"id":"05131","name":"Sebastian County","geoLevel":"COUNTY","rank":732,"score":0.2614352312613368,"customerCount":0,"inGeofence":false,"lat":35.198867,"lng":-94.274314,"countyID":"05131","msaID":"22900","msaName":"Fort Smith, AR-OK"},{"id":"05133","name":"Sevier County","geoLevel":"COUNTY","rank":1091,"score":0.2389781274135187,"customerCount":0,"inGeofence":false,"lat":33.997236,"lng":-94.241287,"countyID":"05133","msaID":null,"msaName":null},{"id":"05135","name":"Sharp County","geoLevel":"COUNTY","rank":847,"score":0.2548905257541237,"customerCount":0,"inGeofence":false,"lat":36.161249,"lng":-91.479782,"countyID":"05135","msaID":null,"msaName":null},{"id":"05137","name":"Stone County","geoLevel":"COUNTY","rank":846,"score":0.2549250534049014,"customerCount":0,"inGeofence":false,"lat":35.859884,"lng":-92.156753,"countyID":"05137","msaID":null,"msaName":null},{"id":"05139","name":"Union County","geoLevel":"COUNTY","rank":744,"score":0.2608470735743353,"customerCount":0,"inGeofence":false,"lat":33.171382,"lng":-92.597276,"countyID":"05139","msaID":null,"msaName":null},{"id":"05141","name":"Van Buren County","geoLevel":"COUNTY","rank":838,"score":0.2552104811065657,"customerCount":0,"inGeofence":false,"lat":35.580637,"lng":-92.515754,"countyID":"05141","msaID":null,"msaName":null},{"id":"05143","name":"Washington County","geoLevel":"COUNTY","rank":199,"score":0.3869347641514763,"customerCount":0,"inGeofence":false,"lat":35.979064,"lng":-94.215606,"countyID":"05143","msaID":"22220","msaName":"Fayetteville-Springdale-Rogers, AR"},{"id":"05145","name":"White County","geoLevel":"COUNTY","rank":782,"score":0.2585376213799421,"customerCount":0,"inGeofence":false,"lat":35.256302,"lng":-91.74558,"countyID":"05145","msaID":null,"msaName":null},{"id":"05147","name":"Woodruff County","geoLevel":"COUNTY","rank":828,"score":0.2556098390290231,"customerCount":0,"inGeofence":false,"lat":35.186327,"lng":-91.243103,"countyID":"05147","msaID":null,"msaName":null},{"id":"05149","name":"Yell County","geoLevel":"COUNTY","rank":824,"score":0.2558392939186539,"customerCount":0,"inGeofence":false,"lat":35.002495,"lng":-93.411083,"countyID":"05149","msaID":null,"msaName":null},{"id":"06001","name":"Alameda County","geoLevel":"COUNTY","rank":26,"score":0.9778306362571566,"customerCount":0,"inGeofence":false,"lat":37.646917,"lng":-121.888886,"countyID":"06001","msaID":"41860","msaName":"San Francisco-Oakland-Berkeley, CA"},{"id":"06003","name":"Alpine County","geoLevel":"COUNTY","rank":3082,"score":0.1503961368436175,"customerCount":0,"inGeofence":false,"lat":38.597257,"lng":-119.820666,"countyID":"06003","msaID":null,"msaName":null},{"id":"06005","name":"Amador County","geoLevel":"COUNTY","rank":3002,"score":0.1683703586908804,"customerCount":0,"inGeofence":false,"lat":38.446403,"lng":-120.651103,"countyID":"06005","msaID":null,"msaName":null},{"id":"06007","name":"Butte County","geoLevel":"COUNTY","rank":328,"score":0.3205074350447937,"customerCount":0,"inGeofence":false,"lat":39.666936,"lng":-121.60069,"countyID":"06007","msaID":"17020","msaName":"Chico, CA"},{"id":"06009","name":"Calaveras County","geoLevel":"COUNTY","rank":3026,"score":0.1645147400010867,"customerCount":0,"inGeofence":false,"lat":38.204614,"lng":-120.554139,"countyID":"06009","msaID":null,"msaName":null},{"id":"06011","name":"Colusa County","geoLevel":"COUNTY","rank":2996,"score":0.1704057858799781,"customerCount":0,"inGeofence":false,"lat":39.17758,"lng":-122.23704,"countyID":"06011","msaID":null,"msaName":null},{"id":"06013","name":"Contra Costa County","geoLevel":"COUNTY","rank":79,"score":0.6345683429358626,"customerCount":0,"inGeofence":false,"lat":37.919163,"lng":-121.927759,"countyID":"06013","msaID":"41860","msaName":"San Francisco-Oakland-Berkeley, CA"},{"id":"06015","name":"Del Norte County","geoLevel":"COUNTY","rank":2957,"score":0.1752781316924112,"customerCount":0,"inGeofence":false,"lat":41.743108,"lng":-123.897243,"countyID":"06015","msaID":null,"msaName":null},{"id":"06017","name":"El Dorado County","geoLevel":"COUNTY","rank":2770,"score":0.1902796436451848,"customerCount":0,"inGeofence":false,"lat":38.778742,"lng":-120.524669,"countyID":"06017","msaID":"40900","msaName":"Sacramento-Roseville-Folsom, CA"},{"id":"06019","name":"Fresno County","geoLevel":"COUNTY","rank":114,"score":0.5048599936926459,"customerCount":0,"inGeofence":false,"lat":36.758189,"lng":-119.649334,"countyID":"06019","msaID":"23420","msaName":"Fresno, CA"},{"id":"06021","name":"Glenn County","geoLevel":"COUNTY","rank":3005,"score":0.1680935596377368,"customerCount":0,"inGeofence":false,"lat":39.598411,"lng":-122.39224,"countyID":"06021","msaID":null,"msaName":null},{"id":"06023","name":"Humboldt County","geoLevel":"COUNTY","rank":2529,"score":0.1973517268036193,"customerCount":0,"inGeofence":false,"lat":40.6993,"lng":-123.875638,"countyID":"06023","msaID":null,"msaName":null},{"id":"06025","name":"Imperial County","geoLevel":"COUNTY","rank":2307,"score":0.2021473529515502,"customerCount":0,"inGeofence":false,"lat":33.039605,"lng":-115.365334,"countyID":"06025","msaID":"20940","msaName":"El Centro, CA"},{"id":"06027","name":"Inyo County","geoLevel":"COUNTY","rank":3069,"score":0.152009970818621,"customerCount":0,"inGeofence":false,"lat":36.511121,"lng":-117.410806,"countyID":"06027","msaID":null,"msaName":null},{"id":"06029","name":"Kern County","geoLevel":"COUNTY","rank":340,"score":0.3159552378895865,"customerCount":0,"inGeofence":false,"lat":35.342634,"lng":-118.73005,"countyID":"06029","msaID":"12540","msaName":"Bakersfield, CA"},{"id":"06031","name":"Kings County","geoLevel":"COUNTY","rank":1748,"score":0.2172164977531343,"customerCount":0,"inGeofence":false,"lat":36.075235,"lng":-119.815483,"countyID":"06031","msaID":"25260","msaName":"Hanford-Corcoran, CA"},{"id":"06033","name":"Lake County","geoLevel":"COUNTY","rank":2942,"score":0.1773841205222239,"customerCount":0,"inGeofence":false,"lat":39.099647,"lng":-122.7532,"countyID":"06033","msaID":null,"msaName":null},{"id":"06035","name":"Lassen County","geoLevel":"COUNTY","rank":3039,"score":0.1615292343906257,"customerCount":0,"inGeofence":false,"lat":40.673603,"lng":-120.594354,"countyID":"06035","msaID":null,"msaName":null},{"id":"06037","name":"Los Angeles County","geoLevel":"COUNTY","rank":3,"score":0.999999593593303,"customerCount":0,"inGeofence":false,"lat":34.320923,"lng":-118.224687,"countyID":"06037","msaID":"31080","msaName":"Los Angeles-Long Beach-Anaheim, CA"},{"id":"06039","name":"Madera County","geoLevel":"COUNTY","rank":1535,"score":0.2227203239588631,"customerCount":0,"inGeofence":false,"lat":37.21805,"lng":-119.762659,"countyID":"06039","msaID":"31460","msaName":"Madera, CA"},{"id":"06041","name":"Marin County","geoLevel":"COUNTY","rank":112,"score":0.5077031634801251,"customerCount":0,"inGeofence":false,"lat":38.073462,"lng":-122.723512,"countyID":"06041","msaID":"41860","msaName":"San Francisco-Oakland-Berkeley, CA"},{"id":"06043","name":"Mariposa County","geoLevel":"COUNTY","rank":2890,"score":0.1825491542071391,"customerCount":0,"inGeofence":false,"lat":37.581531,"lng":-119.905524,"countyID":"06043","msaID":null,"msaName":null},{"id":"06045","name":"Mendocino County","geoLevel":"COUNTY","rank":2902,"score":0.1815646806410466,"customerCount":0,"inGeofence":false,"lat":39.44018,"lng":-123.391497,"countyID":"06045","msaID":null,"msaName":null},{"id":"06047","name":"Merced County","geoLevel":"COUNTY","rank":313,"score":0.3241057665718285,"customerCount":0,"inGeofence":false,"lat":37.191887,"lng":-120.717692,"countyID":"06047","msaID":"32900","msaName":"Merced, CA"},{"id":"06049","name":"Modoc County","geoLevel":"COUNTY","rank":3074,"score":0.1514471894901778,"customerCount":0,"inGeofence":false,"lat":41.589847,"lng":-120.725049,"countyID":"06049","msaID":null,"msaName":null},{"id":"06051","name":"Mono County","geoLevel":"COUNTY","rank":595,"score":0.2737737268260235,"customerCount":0,"inGeofence":false,"lat":37.938981,"lng":-118.886713,"countyID":"06051","msaID":null,"msaName":null},{"id":"06053","name":"Monterey County","geoLevel":"COUNTY","rank":385,"score":0.3036087713814328,"customerCount":0,"inGeofence":false,"lat":36.217081,"lng":-121.238825,"countyID":"06053","msaID":"41500","msaName":"Salinas, CA"},{"id":"06055","name":"Napa County","geoLevel":"COUNTY","rank":175,"score":0.4182887382030989,"customerCount":0,"inGeofence":false,"lat":38.506493,"lng":-122.33055,"countyID":"06055","msaID":"34900","msaName":"Napa, CA"},{"id":"06057","name":"Nevada County","geoLevel":"COUNTY","rank":3013,"score":0.1664532063361676,"customerCount":0,"inGeofence":false,"lat":39.301371,"lng":-120.768793,"countyID":"06057","msaID":null,"msaName":null},{"id":"06059","name":"Orange County","geoLevel":"COUNTY","rank":29,"score":0.9584869139952714,"customerCount":0,"inGeofence":false,"lat":33.703066,"lng":-117.760945,"countyID":"06059","msaID":"31080","msaName":"Los Angeles-Long Beach-Anaheim, CA"},{"id":"06061","name":"Placer County","geoLevel":"COUNTY","rank":1221,"score":0.2343679906453115,"customerCount":0,"inGeofence":false,"lat":39.06344,"lng":-120.717649,"countyID":"06061","msaID":"40900","msaName":"Sacramento-Roseville-Folsom, CA"},{"id":"06063","name":"Plumas County","geoLevel":"COUNTY","rank":3050,"score":0.1585031028702708,"customerCount":0,"inGeofence":false,"lat":40.004685,"lng":-120.838605,"countyID":"06063","msaID":null,"msaName":null},{"id":"06065","name":"Riverside County","geoLevel":"COUNTY","rank":97,"score":0.5822576445882316,"customerCount":0,"inGeofence":false,"lat":33.743689,"lng":-115.993844,"countyID":"06065","msaID":"40140","msaName":"Riverside-San Bernardino-Ontario, CA"},{"id":"06067","name":"Sacramento County","geoLevel":"COUNTY","rank":50,"score":0.8348353220160194,"customerCount":0,"inGeofence":false,"lat":38.449328,"lng":-121.344258,"countyID":"06067","msaID":"40900","msaName":"Sacramento-Roseville-Folsom, CA"},{"id":"06069","name":"San Benito County","geoLevel":"COUNTY","rank":1869,"score":0.2143110753982157,"customerCount":0,"inGeofence":false,"lat":36.605717,"lng":-121.075008,"countyID":"06069","msaID":"41940","msaName":"San Jose-Sunnyvale-Santa Clara, CA"},{"id":"06071","name":"San Bernardino County","geoLevel":"COUNTY","rank":51,"score":0.8087055075946832,"customerCount":0,"inGeofence":false,"lat":34.84145,"lng":-116.178491,"countyID":"06071","msaID":"40140","msaName":"Riverside-San Bernardino-Ontario, CA"},{"id":"06073","name":"San Diego County","geoLevel":"COUNTY","rank":22,"score":0.98730913191166,"customerCount":0,"inGeofence":false,"lat":33.034261,"lng":-116.735062,"countyID":"06073","msaID":"41740","msaName":"San Diego-Chula Vista-Carlsbad, CA"},{"id":"06075","name":"San Francisco County","geoLevel":"COUNTY","rank":2,"score":0.9999997628877781,"customerCount":0,"inGeofence":false,"lat":37.755763,"lng":-122.444925,"countyID":"06075","msaID":"41860","msaName":"San Francisco-Oakland-Berkeley, CA"},{"id":"06077","name":"San Joaquin County","geoLevel":"COUNTY","rank":218,"score":0.3676130536486996,"customerCount":0,"inGeofence":false,"lat":37.934754,"lng":-121.271415,"countyID":"06077","msaID":"44700","msaName":"Stockton, CA"},{"id":"06079","name":"San Luis Obispo County","geoLevel":"COUNTY","rank":330,"score":0.3198796355022919,"customerCount":0,"inGeofence":false,"lat":35.387105,"lng":-120.404319,"countyID":"06079","msaID":"42020","msaName":"San Luis Obispo-Paso Robles, CA"},{"id":"06081","name":"San Mateo County","geoLevel":"COUNTY","rank":21,"score":0.9888886746769135,"customerCount":0,"inGeofence":false,"lat":37.422867,"lng":-122.329036,"countyID":"06081","msaID":"41860","msaName":"San Francisco-Oakland-Berkeley, CA"},{"id":"06083","name":"Santa Barbara County","geoLevel":"COUNTY","rank":176,"score":0.4181575878738293,"customerCount":0,"inGeofence":false,"lat":34.672931,"lng":-120.01688,"countyID":"06083","msaID":"42200","msaName":"Santa Maria-Santa Barbara, CA"},{"id":"06085","name":"Santa Clara County","geoLevel":"COUNTY","rank":12,"score":0.9983871764884925,"customerCount":0,"inGeofence":false,"lat":37.231813,"lng":-121.695174,"countyID":"06085","msaID":"41940","msaName":"San Jose-Sunnyvale-Santa Clara, CA"},{"id":"06087","name":"Santa Cruz County","geoLevel":"COUNTY","rank":389,"score":0.3028911580850707,"customerCount":0,"inGeofence":false,"lat":37.056193,"lng":-122.001869,"countyID":"06087","msaID":"42100","msaName":"Santa Cruz-Watsonville, CA"},{"id":"06089","name":"Shasta County","geoLevel":"COUNTY","rank":2945,"score":0.1763340570999206,"customerCount":0,"inGeofence":false,"lat":40.763775,"lng":-122.040539,"countyID":"06089","msaID":"39820","msaName":"Redding, CA"},{"id":"06091","name":"Sierra County","geoLevel":"COUNTY","rank":3042,"score":0.1608407969981106,"customerCount":0,"inGeofence":false,"lat":39.580402,"lng":-120.516006,"countyID":"06091","msaID":null,"msaName":null},{"id":"06093","name":"Siskiyou County","geoLevel":"COUNTY","rank":3041,"score":0.160852805807994,"customerCount":0,"inGeofence":false,"lat":41.592693,"lng":-122.54038,"countyID":"06093","msaID":null,"msaName":null},{"id":"06095","name":"Solano County","geoLevel":"COUNTY","rank":367,"score":0.307021842893287,"customerCount":0,"inGeofence":false,"lat":38.269973,"lng":-121.932882,"countyID":"06095","msaID":"46700","msaName":"Vallejo, CA"},{"id":"06097","name":"Sonoma County","geoLevel":"COUNTY","rank":284,"score":0.3356839806446477,"customerCount":0,"inGeofence":false,"lat":38.528887,"lng":-122.888001,"countyID":"06097","msaID":"42220","msaName":"Santa Rosa-Petaluma, CA"},{"id":"06099","name":"Stanislaus County","geoLevel":"COUNTY","rank":1395,"score":0.2270606267975899,"customerCount":0,"inGeofence":false,"lat":37.559141,"lng":-120.997707,"countyID":"06099","msaID":"33700","msaName":"Modesto, CA"},{"id":"06101","name":"Sutter County","geoLevel":"COUNTY","rank":1415,"score":0.2263639413543463,"customerCount":0,"inGeofence":false,"lat":39.03456,"lng":-121.694857,"countyID":"06101","msaID":"49700","msaName":"Yuba City, CA"},{"id":"06103","name":"Tehama County","geoLevel":"COUNTY","rank":3048,"score":0.1586842285775994,"customerCount":0,"inGeofence":false,"lat":40.125743,"lng":-122.233898,"countyID":"06103","msaID":null,"msaName":null},{"id":"06105","name":"Trinity County","geoLevel":"COUNTY","rank":2983,"score":0.1725649409695703,"customerCount":0,"inGeofence":false,"lat":40.650697,"lng":-123.112648,"countyID":"06105","msaID":null,"msaName":null},{"id":"06107","name":"Tulare County","geoLevel":"COUNTY","rank":3023,"score":0.1650199763641228,"customerCount":0,"inGeofence":false,"lat":36.220201,"lng":-118.80047,"countyID":"06107","msaID":"47300","msaName":"Visalia, CA"},{"id":"06109","name":"Tuolumne County","geoLevel":"COUNTY","rank":3021,"score":0.1656732897647827,"customerCount":0,"inGeofence":false,"lat":38.027604,"lng":-119.954771,"countyID":"06109","msaID":null,"msaName":null},{"id":"06111","name":"Ventura County","geoLevel":"COUNTY","rank":403,"score":0.2998080581369622,"customerCount":0,"inGeofence":false,"lat":34.456059,"lng":-119.083623,"countyID":"06111","msaID":"37100","msaName":"Oxnard-Thousand Oaks-Ventura, CA"},{"id":"06113","name":"Yolo County","geoLevel":"COUNTY","rank":590,"score":0.2743565513530153,"customerCount":0,"inGeofence":false,"lat":38.686659,"lng":-121.901626,"countyID":"06113","msaID":"40900","msaName":"Sacramento-Roseville-Folsom, CA"},{"id":"06115","name":"Yuba County","geoLevel":"COUNTY","rank":2842,"score":0.1867072350277611,"customerCount":0,"inGeofence":false,"lat":39.269021,"lng":-121.351272,"countyID":"06115","msaID":"49700","msaName":"Yuba City, CA"},{"id":"08001","name":"Adams County","geoLevel":"COUNTY","rank":267,"score":0.3410235023135951,"customerCount":0,"inGeofence":false,"lat":39.873649,"lng":-104.337895,"countyID":"08001","msaID":"19740","msaName":"Denver-Aurora-Lakewood, CO"},{"id":"08003","name":"Alamosa County","geoLevel":"COUNTY","rank":2738,"score":0.1915791682956541,"customerCount":0,"inGeofence":false,"lat":37.572901,"lng":-105.788304,"countyID":"08003","msaID":null,"msaName":null},{"id":"08005","name":"Arapahoe County","geoLevel":"COUNTY","rank":454,"score":0.2903011575580707,"customerCount":0,"inGeofence":false,"lat":39.64978,"lng":-104.339284,"countyID":"08005","msaID":"19740","msaName":"Denver-Aurora-Lakewood, CO"},{"id":"08007","name":"Archuleta County","geoLevel":"COUNTY","rank":2884,"score":0.1835803767699174,"customerCount":0,"inGeofence":false,"lat":37.19362,"lng":-107.048296,"countyID":"08007","msaID":null,"msaName":null},{"id":"08009","name":"Baca County","geoLevel":"COUNTY","rank":2012,"score":0.2112873355830468,"customerCount":0,"inGeofence":false,"lat":37.31919,"lng":-102.560475,"countyID":"08009","msaID":null,"msaName":null},{"id":"08011","name":"Bent County","geoLevel":"COUNTY","rank":974,"score":0.2468117125037623,"customerCount":0,"inGeofence":false,"lat":37.955099,"lng":-103.071707,"countyID":"08011","msaID":null,"msaName":null},{"id":"08013","name":"Boulder County","geoLevel":"COUNTY","rank":193,"score":0.3912669262007905,"customerCount":0,"inGeofence":false,"lat":40.092473,"lng":-105.357723,"countyID":"08013","msaID":"14500","msaName":"Boulder, CO"},{"id":"08014","name":"Broomfield County","geoLevel":"COUNTY","rank":2791,"score":0.1895604623867218,"customerCount":0,"inGeofence":false,"lat":39.954157,"lng":-105.052674,"countyID":"08014","msaID":"19740","msaName":"Denver-Aurora-Lakewood, CO"},{"id":"08015","name":"Chaffee County","geoLevel":"COUNTY","rank":2159,"score":0.2062881053659552,"customerCount":0,"inGeofence":false,"lat":38.746899,"lng":-106.194072,"countyID":"08015","msaID":null,"msaName":null},{"id":"08017","name":"Cheyenne County","geoLevel":"COUNTY","rank":2494,"score":0.1980598429021599,"customerCount":0,"inGeofence":false,"lat":38.827949,"lng":-102.603392,"countyID":"08017","msaID":null,"msaName":null},{"id":"08019","name":"Clear Creek County","geoLevel":"COUNTY","rank":3160,"score":0.1138138885813466,"customerCount":0,"inGeofence":false,"lat":39.689066,"lng":-105.644383,"countyID":"08019","msaID":"19740","msaName":"Denver-Aurora-Lakewood, CO"},{"id":"08021","name":"Conejos County","geoLevel":"COUNTY","rank":2660,"score":0.1938844951515377,"customerCount":0,"inGeofence":false,"lat":37.2007,"lng":-106.191653,"countyID":"08021","msaID":null,"msaName":null},{"id":"08023","name":"Costilla County","geoLevel":"COUNTY","rank":2708,"score":0.192461767629333,"customerCount":0,"inGeofence":false,"lat":37.277956,"lng":-105.428264,"countyID":"08023","msaID":null,"msaName":null},{"id":"08025","name":"Crowley County","geoLevel":"COUNTY","rank":2207,"score":0.2048462354696108,"customerCount":0,"inGeofence":false,"lat":38.326666,"lng":-103.784832,"countyID":"08025","msaID":null,"msaName":null},{"id":"08027","name":"Custer County","geoLevel":"COUNTY","rank":2868,"score":0.1846953500254465,"customerCount":0,"inGeofence":false,"lat":38.108691,"lng":-105.367483,"countyID":"08027","msaID":null,"msaName":null},{"id":"08029","name":"Delta County","geoLevel":"COUNTY","rank":2045,"score":0.2102829265205051,"customerCount":0,"inGeofence":false,"lat":38.861386,"lng":-107.862885,"countyID":"08029","msaID":null,"msaName":null},{"id":"08031","name":"Denver County","geoLevel":"COUNTY","rank":20,"score":0.9894652269421206,"customerCount":0,"inGeofence":false,"lat":39.761998,"lng":-104.875746,"countyID":"08031","msaID":"19740","msaName":"Denver-Aurora-Lakewood, CO"},{"id":"08033","name":"Dolores County","geoLevel":"COUNTY","rank":2766,"score":0.1904779318596845,"customerCount":0,"inGeofence":false,"lat":37.751615,"lng":-108.517288,"countyID":"08033","msaID":null,"msaName":null},{"id":"08035","name":"Douglas County","geoLevel":"COUNTY","rank":3000,"score":0.1685481063972173,"customerCount":0,"inGeofence":false,"lat":39.329735,"lng":-104.929585,"countyID":"08035","msaID":"19740","msaName":"Denver-Aurora-Lakewood, CO"},{"id":"08037","name":"Eagle County","geoLevel":"COUNTY","rank":304,"score":0.3268472417721952,"customerCount":0,"inGeofence":false,"lat":39.62784,"lng":-106.695314,"countyID":"08037","msaID":null,"msaName":null},{"id":"08039","name":"Elbert County","geoLevel":"COUNTY","rank":3149,"score":0.1203427112179193,"customerCount":0,"inGeofence":false,"lat":39.286569,"lng":-104.135895,"countyID":"08039","msaID":"19740","msaName":"Denver-Aurora-Lakewood, CO"},{"id":"08041","name":"El Paso County","geoLevel":"COUNTY","rank":512,"score":0.2826536876489896,"customerCount":0,"inGeofence":false,"lat":38.832113,"lng":-104.525505,"countyID":"08041","msaID":"17820","msaName":"Colorado Springs, CO"},{"id":"08043","name":"Fremont County","geoLevel":"COUNTY","rank":2686,"score":0.1931178512366873,"customerCount":0,"inGeofence":false,"lat":38.473084,"lng":-105.439535,"countyID":"08043","msaID":null,"msaName":null},{"id":"08045","name":"Garfield County","geoLevel":"COUNTY","rank":1205,"score":0.2348278708405135,"customerCount":0,"inGeofence":false,"lat":39.599316,"lng":-107.903968,"countyID":"08045","msaID":null,"msaName":null},{"id":"08047","name":"Gilpin County","geoLevel":"COUNTY","rank":3114,"score":0.1390238429426373,"customerCount":0,"inGeofence":false,"lat":39.857541,"lng":-105.522643,"countyID":"08047","msaID":"19740","msaName":"Denver-Aurora-Lakewood, CO"},{"id":"08049","name":"Grand County","geoLevel":"COUNTY","rank":1228,"score":0.2342825860671575,"customerCount":0,"inGeofence":false,"lat":40.102621,"lng":-106.118363,"countyID":"08049","msaID":null,"msaName":null},{"id":"08051","name":"Gunnison County","geoLevel":"COUNTY","rank":872,"score":0.2534126489593476,"customerCount":0,"inGeofence":false,"lat":38.666801,"lng":-107.031711,"countyID":"08051","msaID":null,"msaName":null},{"id":"08053","name":"Hinsdale County","geoLevel":"COUNTY","rank":2906,"score":0.1811604173449779,"customerCount":0,"inGeofence":false,"lat":37.821361,"lng":-107.300323,"countyID":"08053","msaID":null,"msaName":null},{"id":"08055","name":"Huerfano County","geoLevel":"COUNTY","rank":2114,"score":0.2076791202584934,"customerCount":0,"inGeofence":false,"lat":37.684687,"lng":-104.960592,"countyID":"08055","msaID":null,"msaName":null},{"id":"08057","name":"Jackson County","geoLevel":"COUNTY","rank":2997,"score":0.1699661115190183,"customerCount":0,"inGeofence":false,"lat":40.666435,"lng":-106.342805,"countyID":"08057","msaID":null,"msaName":null},{"id":"08059","name":"Jefferson County","geoLevel":"COUNTY","rank":155,"score":0.4431914388622382,"customerCount":0,"inGeofence":false,"lat":39.586462,"lng":-105.250482,"countyID":"08059","msaID":"19740","msaName":"Denver-Aurora-Lakewood, CO"},{"id":"08061","name":"Kiowa County","geoLevel":"COUNTY","rank":2615,"score":0.195025922856815,"customerCount":0,"inGeofence":false,"lat":38.432694,"lng":-102.74036,"countyID":"08061","msaID":null,"msaName":null},{"id":"08063","name":"Kit Carson County","geoLevel":"COUNTY","rank":2642,"score":0.1944502977285697,"customerCount":0,"inGeofence":false,"lat":39.305449,"lng":-102.602891,"countyID":"08063","msaID":null,"msaName":null},{"id":"08065","name":"Lake County","geoLevel":"COUNTY","rank":3058,"score":0.1572034263646362,"customerCount":0,"inGeofence":false,"lat":39.202388,"lng":-106.344849,"countyID":"08065","msaID":null,"msaName":null},{"id":"08067","name":"La Plata County","geoLevel":"COUNTY","rank":2162,"score":0.2062316291091507,"customerCount":0,"inGeofence":false,"lat":37.286595,"lng":-107.843281,"countyID":"08067","msaID":null,"msaName":null},{"id":"08069","name":"Larimer County","geoLevel":"COUNTY","rank":2988,"score":0.171952716333519,"customerCount":0,"inGeofence":false,"lat":40.666422,"lng":-105.461145,"countyID":"08069","msaID":"22660","msaName":"Fort Collins, CO"},{"id":"08071","name":"Las Animas County","geoLevel":"COUNTY","rank":2845,"score":0.1863668981914547,"customerCount":0,"inGeofence":false,"lat":37.315845,"lng":-104.038712,"countyID":"08071","msaID":null,"msaName":null},{"id":"08073","name":"Lincoln County","geoLevel":"COUNTY","rank":2664,"score":0.1936902543586367,"customerCount":0,"inGeofence":false,"lat":38.988074,"lng":-103.513983,"countyID":"08073","msaID":null,"msaName":null},{"id":"08075","name":"Logan County","geoLevel":"COUNTY","rank":1043,"score":0.2421556285886125,"customerCount":0,"inGeofence":false,"lat":40.724673,"lng":-103.110112,"countyID":"08075","msaID":null,"msaName":null},{"id":"08077","name":"Mesa County","geoLevel":"COUNTY","rank":1344,"score":0.2295523873659629,"customerCount":0,"inGeofence":false,"lat":39.0183,"lng":-108.466453,"countyID":"08077","msaID":"24300","msaName":"Grand Junction, CO"},{"id":"08079","name":"Mineral County","geoLevel":"COUNTY","rank":2967,"score":0.1741863579862676,"customerCount":0,"inGeofence":false,"lat":37.669004,"lng":-106.924112,"countyID":"08079","msaID":null,"msaName":null},{"id":"08081","name":"Moffat County","geoLevel":"COUNTY","rank":2447,"score":0.1992200787609391,"customerCount":0,"inGeofence":false,"lat":40.618432,"lng":-108.207308,"countyID":"08081","msaID":null,"msaName":null},{"id":"08083","name":"Montezuma County","geoLevel":"COUNTY","rank":2236,"score":0.2040161111403815,"customerCount":0,"inGeofence":false,"lat":37.338434,"lng":-108.596665,"countyID":"08083","msaID":null,"msaName":null},{"id":"08085","name":"Montrose County","geoLevel":"COUNTY","rank":1936,"score":0.2129082394269501,"customerCount":0,"inGeofence":false,"lat":38.402166,"lng":-108.269461,"countyID":"08085","msaID":null,"msaName":null},{"id":"08087","name":"Morgan County","geoLevel":"COUNTY","rank":2020,"score":0.2110715843057461,"customerCount":0,"inGeofence":false,"lat":40.262754,"lng":-103.809843,"countyID":"08087","msaID":null,"msaName":null},{"id":"08089","name":"Otero County","geoLevel":"COUNTY","rank":2522,"score":0.197451148017502,"customerCount":0,"inGeofence":false,"lat":37.9027,"lng":-103.716445,"countyID":"08089","msaID":null,"msaName":null},{"id":"08091","name":"Ouray County","geoLevel":"COUNTY","rank":2918,"score":0.1800877005853186,"customerCount":0,"inGeofence":false,"lat":38.155509,"lng":-107.769346,"countyID":"08091","msaID":null,"msaName":null},{"id":"08093","name":"Park County","geoLevel":"COUNTY","rank":3148,"score":0.1212241521697685,"customerCount":0,"inGeofence":false,"lat":39.119346,"lng":-105.717249,"countyID":"08093","msaID":"19740","msaName":"Denver-Aurora-Lakewood, CO"},{"id":"08095","name":"Phillips County","geoLevel":"COUNTY","rank":2009,"score":0.2113592533145092,"customerCount":0,"inGeofence":false,"lat":40.593891,"lng":-102.357583,"countyID":"08095","msaID":null,"msaName":null},{"id":"08097","name":"Pitkin County","geoLevel":"COUNTY","rank":80,"score":0.6306521812842835,"customerCount":0,"inGeofence":false,"lat":39.21711,"lng":-106.916587,"countyID":"08097","msaID":null,"msaName":null},{"id":"08099","name":"Prowers County","geoLevel":"COUNTY","rank":2473,"score":0.1985022801768018,"customerCount":0,"inGeofence":false,"lat":37.9552,"lng":-102.393353,"countyID":"08099","msaID":null,"msaName":null},{"id":"08101","name":"Pueblo County","geoLevel":"COUNTY","rank":2835,"score":0.1869940287574402,"customerCount":0,"inGeofence":false,"lat":38.173429,"lng":-104.512863,"countyID":"08101","msaID":"39380","msaName":"Pueblo, CO"},{"id":"08103","name":"Rio Blanco County","geoLevel":"COUNTY","rank":2911,"score":0.1805606963966751,"customerCount":0,"inGeofence":false,"lat":39.979838,"lng":-108.217245,"countyID":"08103","msaID":null,"msaName":null},{"id":"08105","name":"Rio Grande County","geoLevel":"COUNTY","rank":2365,"score":0.2010802327274941,"customerCount":0,"inGeofence":false,"lat":37.58253,"lng":-106.38322,"countyID":"08105","msaID":null,"msaName":null},{"id":"08107","name":"Routt County","geoLevel":"COUNTY","rank":862,"score":0.254095098823882,"customerCount":0,"inGeofence":false,"lat":40.485068,"lng":-106.9912,"countyID":"08107","msaID":null,"msaName":null},{"id":"08109","name":"Saguache County","geoLevel":"COUNTY","rank":2865,"score":0.1848102619850838,"customerCount":0,"inGeofence":false,"lat":38.08056,"lng":-106.281566,"countyID":"08109","msaID":null,"msaName":null},{"id":"08111","name":"San Juan County","geoLevel":"COUNTY","rank":2143,"score":0.2067943233285424,"customerCount":0,"inGeofence":false,"lat":37.764042,"lng":-107.676166,"countyID":"08111","msaID":null,"msaName":null},{"id":"08113","name":"San Miguel County","geoLevel":"COUNTY","rank":1900,"score":0.2137394681101493,"customerCount":0,"inGeofence":false,"lat":38.003746,"lng":-108.405931,"countyID":"08113","msaID":null,"msaName":null},{"id":"08115","name":"Sedgwick County","geoLevel":"COUNTY","rank":1915,"score":0.2132902998351897,"customerCount":0,"inGeofence":false,"lat":40.875905,"lng":-102.351798,"countyID":"08115","msaID":null,"msaName":null},{"id":"08117","name":"Summit County","geoLevel":"COUNTY","rank":146,"score":0.461245340452078,"customerCount":0,"inGeofence":false,"lat":39.634171,"lng":-106.116384,"countyID":"08117","msaID":null,"msaName":null},{"id":"08119","name":"Teller County","geoLevel":"COUNTY","rank":3136,"score":0.1281539903597059,"customerCount":0,"inGeofence":false,"lat":38.88245,"lng":-105.161802,"countyID":"08119","msaID":"17820","msaName":"Colorado Springs, CO"},{"id":"08121","name":"Washington County","geoLevel":"COUNTY","rank":2700,"score":0.1928031761082706,"customerCount":0,"inGeofence":false,"lat":39.971069,"lng":-103.201259,"countyID":"08121","msaID":null,"msaName":null},{"id":"08123","name":"Weld County","geoLevel":"COUNTY","rank":2617,"score":0.1950006617172594,"customerCount":0,"inGeofence":false,"lat":40.554834,"lng":-104.392537,"countyID":"08123","msaID":"24540","msaName":"Greeley, CO"},{"id":"08125","name":"Yuma County","geoLevel":"COUNTY","rank":2016,"score":0.2112393740762729,"customerCount":0,"inGeofence":false,"lat":40.002909,"lng":-102.424234,"countyID":"08125","msaID":null,"msaName":null},{"id":"09001","name":"Fairfield County","geoLevel":"COUNTY","rank":163,"score":0.4385558896483969,"customerCount":0,"inGeofence":false,"lat":41.271106,"lng":-73.389273,"countyID":"09001","msaID":"14860","msaName":"Bridgeport-Stamford-Norwalk, CT"},{"id":"09003","name":"Hartford County","geoLevel":"COUNTY","rank":113,"score":0.5057740624518382,"customerCount":0,"inGeofence":false,"lat":41.806441,"lng":-72.732816,"countyID":"09003","msaID":"25540","msaName":"Hartford-East Hartford-Middletown, CT"},{"id":"09005","name":"Litchfield County","geoLevel":"COUNTY","rank":1050,"score":0.2416038176083521,"customerCount":0,"inGeofence":false,"lat":41.792497,"lng":-73.245321,"countyID":"09005","msaID":null,"msaName":null},{"id":"09007","name":"Middlesex County","geoLevel":"COUNTY","rank":2268,"score":0.2028252466343159,"customerCount":0,"inGeofence":false,"lat":41.463197,"lng":-72.535143,"countyID":"09007","msaID":"25540","msaName":"Hartford-East Hartford-Middletown, CT"},{"id":"09009","name":"New Haven County","geoLevel":"COUNTY","rank":245,"score":0.3535913107371623,"customerCount":0,"inGeofence":false,"lat":41.410562,"lng":-72.932112,"countyID":"09009","msaID":"35300","msaName":"New Haven-Milford, CT"},{"id":"09011","name":"New London County","geoLevel":"COUNTY","rank":741,"score":0.2609671842285237,"customerCount":0,"inGeofence":false,"lat":41.486684,"lng":-72.101395,"countyID":"09011","msaID":"35980","msaName":"Norwich-New London, CT"},{"id":"09013","name":"Tolland County","geoLevel":"COUNTY","rank":2123,"score":0.2074995751428268,"customerCount":0,"inGeofence":false,"lat":41.85507,"lng":-72.336505,"countyID":"09013","msaID":"25540","msaName":"Hartford-East Hartford-Middletown, CT"},{"id":"09015","name":"Windham County","geoLevel":"COUNTY","rank":1647,"score":0.2192635207176736,"customerCount":0,"inGeofence":false,"lat":41.83005,"lng":-71.987482,"countyID":"09015","msaID":"49340","msaName":"Worcester, MA-CT"},{"id":"10001","name":"Kent County","geoLevel":"COUNTY","rank":461,"score":0.2896069137799924,"customerCount":0,"inGeofence":false,"lat":39.085956,"lng":-75.568634,"countyID":"10001","msaID":"20100","msaName":"Dover, DE"},{"id":"10003","name":"New Castle County","geoLevel":"COUNTY","rank":278,"score":0.3377037338898037,"customerCount":0,"inGeofence":false,"lat":39.577183,"lng":-75.652524,"countyID":"10003","msaID":"37980","msaName":"Philadelphia-Camden-Wilmington, PA-NJ-DE-MD"},{"id":"10005","name":"Sussex County","geoLevel":"COUNTY","rank":239,"score":0.3570012910166317,"customerCount":0,"inGeofence":false,"lat":38.660578,"lng":-75.390082,"countyID":"10005","msaID":"41540","msaName":"Salisbury, MD-DE"},{"id":"11001","name":"District of Columbia","geoLevel":"COUNTY","rank":4,"score":0.9999950696471164,"customerCount":0,"inGeofence":false,"lat":38.904804,"lng":-77.016309,"countyID":"11001","msaID":"47900","msaName":"Washington-Arlington-Alexandria, DC-VA-MD-WV"},{"id":"12001","name":"Alachua County","geoLevel":"COUNTY","rank":105,"score":0.5229719667859404,"customerCount":0,"inGeofence":false,"lat":29.674762,"lng":-82.357703,"countyID":"12001","msaID":"23540","msaName":"Gainesville, FL"},{"id":"12003","name":"Baker County","geoLevel":"COUNTY","rank":766,"score":0.2593516478953417,"customerCount":0,"inGeofence":false,"lat":30.331078,"lng":-82.284594,"countyID":"12003","msaID":"27260","msaName":"Jacksonville, FL"},{"id":"12005","name":"Bay County","geoLevel":"COUNTY","rank":168,"score":0.4310580306006345,"customerCount":0,"inGeofence":false,"lat":30.265209,"lng":-85.620266,"countyID":"12005","msaID":"37460","msaName":"Panama City, FL"},{"id":"12007","name":"Bradford County","geoLevel":"COUNTY","rank":931,"score":0.2496055092443983,"customerCount":0,"inGeofence":false,"lat":29.94997,"lng":-82.168777,"countyID":"12007","msaID":null,"msaName":null},{"id":"12009","name":"Brevard County","geoLevel":"COUNTY","rank":174,"score":0.4183567673895345,"customerCount":0,"inGeofence":false,"lat":28.293594,"lng":-80.732254,"countyID":"12009","msaID":"37340","msaName":"Palm Bay-Melbourne-Titusville, FL"},{"id":"12011","name":"Broward County","geoLevel":"COUNTY","rank":36,"score":0.908268208593096,"customerCount":0,"inGeofence":false,"lat":26.152292,"lng":-80.487052,"countyID":"12011","msaID":"33100","msaName":"Miami-Fort Lauderdale-Pompano Beach, FL"},{"id":"12013","name":"Calhoun County","geoLevel":"COUNTY","rank":983,"score":0.2463153043334287,"customerCount":0,"inGeofence":false,"lat":30.406042,"lng":-85.197215,"countyID":"12013","msaID":null,"msaName":null},{"id":"12015","name":"Charlotte County","geoLevel":"COUNTY","rank":232,"score":0.3607235002617451,"customerCount":0,"inGeofence":false,"lat":26.90547,"lng":-81.912288,"countyID":"12015","msaID":"39460","msaName":"Punta Gorda, FL"},{"id":"12017","name":"Citrus County","geoLevel":"COUNTY","rank":299,"score":0.3280515822650905,"customerCount":0,"inGeofence":false,"lat":28.84889,"lng":-82.479401,"countyID":"12017","msaID":"26140","msaName":"Homosassa Springs, FL"},{"id":"12019","name":"Clay County","geoLevel":"COUNTY","rank":351,"score":0.3113927488018994,"customerCount":0,"inGeofence":false,"lat":29.983082,"lng":-81.857891,"countyID":"12019","msaID":"27260","msaName":"Jacksonville, FL"},{"id":"12021","name":"Collier County","geoLevel":"COUNTY","rank":183,"score":0.4129954258865038,"customerCount":0,"inGeofence":false,"lat":26.110543,"lng":-81.347452,"countyID":"12021","msaID":"34940","msaName":"Naples-Marco Island, FL"},{"id":"12023","name":"Columbia County","geoLevel":"COUNTY","rank":1135,"score":0.2371429626225807,"customerCount":0,"inGeofence":false,"lat":30.224229,"lng":-82.621551,"countyID":"12023","msaID":null,"msaName":null},{"id":"12027","name":"DeSoto County","geoLevel":"COUNTY","rank":560,"score":0.2768991979357733,"customerCount":0,"inGeofence":false,"lat":27.1863,"lng":-81.809432,"countyID":"12027","msaID":null,"msaName":null},{"id":"12029","name":"Dixie County","geoLevel":"COUNTY","rank":1343,"score":0.2295536142645966,"customerCount":0,"inGeofence":false,"lat":29.608171,"lng":-83.158791,"countyID":"12029","msaID":null,"msaName":null},{"id":"12031","name":"Duval County","geoLevel":"COUNTY","rank":57,"score":0.7832529745656839,"customerCount":0,"inGeofence":false,"lat":30.331597,"lng":-81.670808,"countyID":"12031","msaID":"27260","msaName":"Jacksonville, FL"},{"id":"12033","name":"Escambia County","geoLevel":"COUNTY","rank":197,"score":0.3890073060268769,"customerCount":0,"inGeofence":false,"lat":30.668826,"lng":-87.362891,"countyID":"12033","msaID":"37860","msaName":"Pensacola-Ferry Pass-Brent, FL"},{"id":"12035","name":"Flagler County","geoLevel":"COUNTY","rank":283,"score":0.3360311687892715,"customerCount":0,"inGeofence":false,"lat":29.461386,"lng":-81.313594,"countyID":"12035","msaID":"19660","msaName":"Deltona-Daytona Beach-Ormond Beach, FL"},{"id":"12037","name":"Franklin County","geoLevel":"COUNTY","rank":926,"score":0.249774083611588,"customerCount":0,"inGeofence":false,"lat":29.876463,"lng":-84.813924,"countyID":"12037","msaID":null,"msaName":null},{"id":"12039","name":"Gadsden County","geoLevel":"COUNTY","rank":315,"score":0.3236314731522683,"customerCount":0,"inGeofence":false,"lat":30.579472,"lng":-84.613608,"countyID":"12039","msaID":"45220","msaName":"Tallahassee, FL"},{"id":"12041","name":"Gilchrist County","geoLevel":"COUNTY","rank":555,"score":0.2774364440985784,"customerCount":0,"inGeofence":false,"lat":29.725828,"lng":-82.800359,"countyID":"12041","msaID":"23540","msaName":"Gainesville, FL"},{"id":"12043","name":"Glades County","geoLevel":"COUNTY","rank":601,"score":0.27342393486727,"customerCount":0,"inGeofence":false,"lat":26.956398,"lng":-81.188987,"countyID":"12043","msaID":null,"msaName":null},{"id":"12045","name":"Gulf County","geoLevel":"COUNTY","rank":976,"score":0.2467643041162707,"customerCount":0,"inGeofence":false,"lat":29.955566,"lng":-85.226603,"countyID":"12045","msaID":null,"msaName":null},{"id":"12047","name":"Hamilton County","geoLevel":"COUNTY","rank":1868,"score":0.2143192986408237,"customerCount":0,"inGeofence":false,"lat":30.496436,"lng":-82.947957,"countyID":"12047","msaID":null,"msaName":null},{"id":"12049","name":"Hardee County","geoLevel":"COUNTY","rank":660,"score":0.2690500636802066,"customerCount":0,"inGeofence":false,"lat":27.492707,"lng":-81.810014,"countyID":"12049","msaID":null,"msaName":null},{"id":"12051","name":"Hendry County","geoLevel":"COUNTY","rank":466,"score":0.2892245764967878,"customerCount":0,"inGeofence":false,"lat":26.553429,"lng":-81.165896,"countyID":"12051","msaID":null,"msaName":null},{"id":"12053","name":"Hernando County","geoLevel":"COUNTY","rank":379,"score":0.3057791816418138,"customerCount":0,"inGeofence":false,"lat":28.553509,"lng":-82.424514,"countyID":"12053","msaID":"45300","msaName":"Tampa-St. Petersburg-Clearwater, FL"},{"id":"12055","name":"Highlands County","geoLevel":"COUNTY","rank":235,"score":0.3587984956255377,"customerCount":0,"inGeofence":false,"lat":27.34339,"lng":-81.341036,"countyID":"12055","msaID":"42700","msaName":"Sebring-Avon Park, FL"},{"id":"12057","name":"Hillsborough County","geoLevel":"COUNTY","rank":49,"score":0.8406024013059941,"customerCount":0,"inGeofence":false,"lat":27.929167,"lng":-82.30921,"countyID":"12057","msaID":"45300","msaName":"Tampa-St. Petersburg-Clearwater, FL"},{"id":"12059","name":"Holmes County","geoLevel":"COUNTY","rank":1843,"score":0.2148847088908578,"customerCount":0,"inGeofence":false,"lat":30.867894,"lng":-85.814106,"countyID":"12059","msaID":null,"msaName":null},{"id":"12061","name":"Indian River County","geoLevel":"COUNTY","rank":231,"score":0.3607738730071242,"customerCount":0,"inGeofence":false,"lat":27.694257,"lng":-80.606166,"countyID":"12061","msaID":"42680","msaName":"Sebastian-Vero Beach, FL"},{"id":"12063","name":"Jackson County","geoLevel":"COUNTY","rank":1237,"score":0.2339831587947024,"customerCount":0,"inGeofence":false,"lat":30.795397,"lng":-85.21547,"countyID":"12063","msaID":null,"msaName":null},{"id":"12065","name":"Jefferson County","geoLevel":"COUNTY","rank":536,"score":0.279876977953331,"customerCount":0,"inGeofence":false,"lat":30.437415,"lng":-83.895332,"countyID":"12065","msaID":"45220","msaName":"Tallahassee, FL"},{"id":"12067","name":"Lafayette County","geoLevel":"COUNTY","rank":1829,"score":0.2154030432587072,"customerCount":0,"inGeofence":false,"lat":29.985521,"lng":-83.181075,"countyID":"12067","msaID":null,"msaName":null},{"id":"12069","name":"Lake County","geoLevel":"COUNTY","rank":270,"score":0.340131482166432,"customerCount":0,"inGeofence":false,"lat":28.761486,"lng":-81.711325,"countyID":"12069","msaID":"36740","msaName":"Orlando-Kissimmee-Sanford, FL"},{"id":"12071","name":"Lee County","geoLevel":"COUNTY","rank":99,"score":0.5598297544840402,"customerCount":0,"inGeofence":false,"lat":26.577862,"lng":-81.833678,"countyID":"12071","msaID":"15980","msaName":"Cape Coral-Fort Myers, FL"},{"id":"12073","name":"Leon County","geoLevel":"COUNTY","rank":130,"score":0.4847576358236264,"customerCount":0,"inGeofence":false,"lat":30.458046,"lng":-84.277878,"countyID":"12073","msaID":"45220","msaName":"Tallahassee, FL"},{"id":"12075","name":"Levy County","geoLevel":"COUNTY","rank":529,"score":0.2806161405592275,"customerCount":0,"inGeofence":false,"lat":29.318433,"lng":-82.74357,"countyID":"12075","msaID":"23540","msaName":"Gainesville, FL"},{"id":"12077","name":"Liberty County","geoLevel":"COUNTY","rank":1347,"score":0.2293775567414,"customerCount":0,"inGeofence":false,"lat":30.241365,"lng":-84.882916,"countyID":"12077","msaID":null,"msaName":null},{"id":"12079","name":"Madison County","geoLevel":"COUNTY","rank":1488,"score":0.224039122406394,"customerCount":0,"inGeofence":false,"lat":30.444144,"lng":-83.470126,"countyID":"12079","msaID":null,"msaName":null},{"id":"12081","name":"Manatee County","geoLevel":"COUNTY","rank":208,"score":0.3757140948698729,"customerCount":0,"inGeofence":false,"lat":27.471909,"lng":-82.315322,"countyID":"12081","msaID":"35840","msaName":"North Port-Sarasota-Bradenton, FL"},{"id":"12083","name":"Marion County","geoLevel":"COUNTY","rank":377,"score":0.3060959060849468,"customerCount":0,"inGeofence":false,"lat":29.210208,"lng":-82.056687,"countyID":"12083","msaID":"36100","msaName":"Ocala, FL"},{"id":"12085","name":"Martin County","geoLevel":"COUNTY","rank":205,"score":0.3782615080411904,"customerCount":0,"inGeofence":false,"lat":27.07759,"lng":-80.431127,"countyID":"12085","msaID":"38940","msaName":"Port St. Lucie, FL"},{"id":"12086","name":"Miami-Dade County","geoLevel":"COUNTY","rank":9,"score":0.999181742492191,"customerCount":0,"inGeofence":false,"lat":25.615029,"lng":-80.562337,"countyID":"12086","msaID":"33100","msaName":"Miami-Fort Lauderdale-Pompano Beach, FL"},{"id":"12087","name":"Monroe County","geoLevel":"COUNTY","rank":46,"score":0.8481747645934046,"customerCount":0,"inGeofence":false,"lat":25.318148,"lng":-81.108643,"countyID":"12087","msaID":null,"msaName":null},{"id":"12089","name":"Nassau County","geoLevel":"COUNTY","rank":509,"score":0.2831767968491699,"customerCount":0,"inGeofence":false,"lat":30.610621,"lng":-81.801762,"countyID":"12089","msaID":"27260","msaName":"Jacksonville, FL"},{"id":"12091","name":"Okaloosa County","geoLevel":"COUNTY","rank":195,"score":0.389483452869174,"customerCount":0,"inGeofence":false,"lat":30.691359,"lng":-86.591689,"countyID":"12091","msaID":"18880","msaName":"Crestview-Fort Walton Beach-Destin, FL"},{"id":"12093","name":"Okeechobee County","geoLevel":"COUNTY","rank":455,"score":0.2902036307633491,"customerCount":0,"inGeofence":false,"lat":27.386324,"lng":-80.88859,"countyID":"12093","msaID":null,"msaName":null},{"id":"12095","name":"Orange County","geoLevel":"COUNTY","rank":24,"score":0.9817658183624607,"customerCount":0,"inGeofence":false,"lat":28.514444,"lng":-81.323527,"countyID":"12095","msaID":"36740","msaName":"Orlando-Kissimmee-Sanford, FL"},{"id":"12097","name":"Osceola County","geoLevel":"COUNTY","rank":93,"score":0.6014007908646632,"customerCount":0,"inGeofence":false,"lat":28.062651,"lng":-81.149487,"countyID":"12097","msaID":"36740","msaName":"Orlando-Kissimmee-Sanford, FL"},{"id":"12099","name":"Palm Beach County","geoLevel":"COUNTY","rank":71,"score":0.6838022563974224,"customerCount":0,"inGeofence":false,"lat":26.647593,"lng":-80.465608,"countyID":"12099","msaID":"33100","msaName":"Miami-Fort Lauderdale-Pompano Beach, FL"},{"id":"12101","name":"Pasco County","geoLevel":"COUNTY","rank":266,"score":0.3414185873773043,"customerCount":0,"inGeofence":false,"lat":28.309123,"lng":-82.393155,"countyID":"12101","msaID":"45300","msaName":"Tampa-St. Petersburg-Clearwater, FL"},{"id":"12103","name":"Pinellas County","geoLevel":"COUNTY","rank":44,"score":0.8552411290474352,"customerCount":0,"inGeofence":false,"lat":27.919951,"lng":-82.725603,"countyID":"12103","msaID":"45300","msaName":"Tampa-St. Petersburg-Clearwater, FL"},{"id":"12105","name":"Polk County","geoLevel":"COUNTY","rank":244,"score":0.3536684310126187,"customerCount":0,"inGeofence":false,"lat":27.948871,"lng":-81.697685,"countyID":"12105","msaID":"29460","msaName":"Lakeland-Winter Haven, FL"},{"id":"12107","name":"Putnam County","geoLevel":"COUNTY","rank":942,"score":0.248932041297333,"customerCount":0,"inGeofence":false,"lat":29.608648,"lng":-81.744308,"countyID":"12107","msaID":null,"msaName":null},{"id":"12109","name":"St. Johns County","geoLevel":"COUNTY","rank":223,"score":0.3636741425586272,"customerCount":0,"inGeofence":false,"lat":29.901641,"lng":-81.440677,"countyID":"12109","msaID":"27260","msaName":"Jacksonville, FL"},{"id":"12111","name":"St. Lucie County","geoLevel":"COUNTY","rank":115,"score":0.5012923183432492,"customerCount":0,"inGeofence":false,"lat":27.377273,"lng":-80.472054,"countyID":"12111","msaID":"38940","msaName":"Port St. Lucie, FL"},{"id":"12113","name":"Santa Rosa County","geoLevel":"COUNTY","rank":616,"score":0.2722334300146245,"customerCount":0,"inGeofence":false,"lat":30.700374,"lng":-87.021872,"countyID":"12113","msaID":"37860","msaName":"Pensacola-Ferry Pass-Brent, FL"},{"id":"12115","name":"Sarasota County","geoLevel":"COUNTY","rank":118,"score":0.4990085600368969,"customerCount":0,"inGeofence":false,"lat":27.184464,"lng":-82.331496,"countyID":"12115","msaID":"35840","msaName":"North Port-Sarasota-Bradenton, FL"},{"id":"12117","name":"Seminole County","geoLevel":"COUNTY","rank":144,"score":0.465238031179152,"customerCount":0,"inGeofence":false,"lat":28.716968,"lng":-81.236323,"countyID":"12117","msaID":"36740","msaName":"Orlando-Kissimmee-Sanford, FL"},{"id":"12119","name":"Sumter County","geoLevel":"COUNTY","rank":409,"score":0.2992405942328355,"customerCount":0,"inGeofence":false,"lat":28.70482,"lng":-82.080995,"countyID":"12119","msaID":"45540","msaName":"The Villages, FL"},{"id":"12121","name":"Suwannee County","geoLevel":"COUNTY","rank":984,"score":0.2463051942116207,"customerCount":0,"inGeofence":false,"lat":30.195615,"lng":-82.991494,"countyID":"12121","msaID":null,"msaName":null},{"id":"12123","name":"Taylor County","geoLevel":"COUNTY","rank":1313,"score":0.2305926067213157,"customerCount":0,"inGeofence":false,"lat":30.047029,"lng":-83.603504,"countyID":"12123","msaID":null,"msaName":null},{"id":"12125","name":"Union County","geoLevel":"COUNTY","rank":1872,"score":0.2142758386558475,"customerCount":0,"inGeofence":false,"lat":30.043847,"lng":-82.371445,"countyID":"12125","msaID":null,"msaName":null},{"id":"12127","name":"Volusia County","geoLevel":"COUNTY","rank":166,"score":0.4353844303753334,"customerCount":0,"inGeofence":false,"lat":29.058317,"lng":-81.181836,"countyID":"12127","msaID":"19660","msaName":"Deltona-Daytona Beach-Ormond Beach, FL"},{"id":"12129","name":"Wakulla County","geoLevel":"COUNTY","rank":557,"score":0.2772437862494061,"customerCount":0,"inGeofence":false,"lat":30.167335,"lng":-84.400733,"countyID":"12129","msaID":"45220","msaName":"Tallahassee, FL"},{"id":"12131","name":"Walton County","geoLevel":"COUNTY","rank":164,"score":0.4382647324023303,"customerCount":0,"inGeofence":false,"lat":30.643556,"lng":-86.169645,"countyID":"12131","msaID":"18880","msaName":"Crestview-Fort Walton Beach-Destin, FL"},{"id":"12133","name":"Washington County","geoLevel":"COUNTY","rank":933,"score":0.2494555256231181,"customerCount":0,"inGeofence":false,"lat":30.610594,"lng":-85.665328,"countyID":"12133","msaID":null,"msaName":null},{"id":"13001","name":"Appling County","geoLevel":"COUNTY","rank":1584,"score":0.2210994245471959,"customerCount":0,"inGeofence":false,"lat":31.749288,"lng":-82.28898,"countyID":"13001","msaID":null,"msaName":null},{"id":"13003","name":"Atkinson County","geoLevel":"COUNTY","rank":1726,"score":0.2176540757203944,"customerCount":0,"inGeofence":false,"lat":31.297112,"lng":-82.880002,"countyID":"13003","msaID":null,"msaName":null},{"id":"13005","name":"Bacon County","geoLevel":"COUNTY","rank":2284,"score":0.2025005969345404,"customerCount":0,"inGeofence":false,"lat":31.553674,"lng":-82.45268,"countyID":"13005","msaID":null,"msaName":null},{"id":"13007","name":"Baker County","geoLevel":"COUNTY","rank":1021,"score":0.243745275733934,"customerCount":0,"inGeofence":false,"lat":31.326193,"lng":-84.444684,"countyID":"13007","msaID":null,"msaName":null},{"id":"13009","name":"Baldwin County","geoLevel":"COUNTY","rank":1020,"score":0.2438921219882898,"customerCount":0,"inGeofence":false,"lat":33.069282,"lng":-83.249583,"countyID":"13009","msaID":null,"msaName":null},{"id":"13011","name":"Banks County","geoLevel":"COUNTY","rank":1578,"score":0.2213278677059838,"customerCount":0,"inGeofence":false,"lat":34.354324,"lng":-83.497211,"countyID":"13011","msaID":null,"msaName":null},{"id":"13013","name":"Barrow County","geoLevel":"COUNTY","rank":633,"score":0.2711001024526303,"customerCount":0,"inGeofence":false,"lat":33.993193,"lng":-83.712742,"countyID":"13013","msaID":"12060","msaName":"Atlanta-Sandy Springs-Alpharetta, GA"},{"id":"13015","name":"Bartow County","geoLevel":"COUNTY","rank":450,"score":0.2906200469899003,"customerCount":0,"inGeofence":false,"lat":34.237664,"lng":-84.840337,"countyID":"13015","msaID":"12060","msaName":"Atlanta-Sandy Springs-Alpharetta, GA"},{"id":"13017","name":"Ben Hill County","geoLevel":"COUNTY","rank":1443,"score":0.2252192456199441,"customerCount":0,"inGeofence":false,"lat":31.759787,"lng":-83.220462,"countyID":"13017","msaID":null,"msaName":null},{"id":"13019","name":"Berrien County","geoLevel":"COUNTY","rank":1731,"score":0.2175972215040669,"customerCount":0,"inGeofence":false,"lat":31.276064,"lng":-83.229624,"countyID":"13019","msaID":null,"msaName":null},{"id":"13021","name":"Bibb County","geoLevel":"COUNTY","rank":209,"score":0.37510240871356,"customerCount":0,"inGeofence":false,"lat":32.806507,"lng":-83.697443,"countyID":"13021","msaID":"31420","msaName":"Macon-Bibb County, GA"},{"id":"13023","name":"Bleckley County","geoLevel":"COUNTY","rank":1168,"score":0.2361281562776211,"customerCount":0,"inGeofence":false,"lat":32.434451,"lng":-83.327832,"countyID":"13023","msaID":null,"msaName":null},{"id":"13025","name":"Brantley County","geoLevel":"COUNTY","rank":715,"score":0.2630931808002896,"customerCount":0,"inGeofence":false,"lat":31.196885,"lng":-81.981899,"countyID":"13025","msaID":"15260","msaName":"Brunswick, GA"},{"id":"13027","name":"Brooks County","geoLevel":"COUNTY","rank":650,"score":0.2696171401936458,"customerCount":0,"inGeofence":false,"lat":30.841977,"lng":-83.580211,"countyID":"13027","msaID":"46660","msaName":"Valdosta, GA"},{"id":"13029","name":"Bryan County","geoLevel":"COUNTY","rank":914,"score":0.2510661664775063,"customerCount":0,"inGeofence":false,"lat":32.014481,"lng":-81.443634,"countyID":"13029","msaID":"42340","msaName":"Savannah, GA"},{"id":"13031","name":"Bulloch County","geoLevel":"COUNTY","rank":860,"score":0.2541879840156684,"customerCount":0,"inGeofence":false,"lat":32.39681,"lng":-81.743177,"countyID":"13031","msaID":null,"msaName":null},{"id":"13033","name":"Burke County","geoLevel":"COUNTY","rank":296,"score":0.3284054992442838,"customerCount":0,"inGeofence":false,"lat":33.061159,"lng":-82.000779,"countyID":"13033","msaID":"12260","msaName":"Augusta-Richmond County, GA-SC"},{"id":"13035","name":"Butts County","geoLevel":"COUNTY","rank":978,"score":0.2465110623124012,"customerCount":0,"inGeofence":false,"lat":33.287864,"lng":-83.95717,"countyID":"13035","msaID":"12060","msaName":"Atlanta-Sandy Springs-Alpharetta, GA"},{"id":"13037","name":"Calhoun County","geoLevel":"COUNTY","rank":1233,"score":0.2341152464978187,"customerCount":0,"inGeofence":false,"lat":31.529205,"lng":-84.624506,"countyID":"13037","msaID":null,"msaName":null},{"id":"13039","name":"Camden County","geoLevel":"COUNTY","rank":2115,"score":0.2076411043734028,"customerCount":0,"inGeofence":false,"lat":30.930618,"lng":-81.669951,"countyID":"13039","msaID":null,"msaName":null},{"id":"13043","name":"Candler County","geoLevel":"COUNTY","rank":1672,"score":0.218670650268251,"customerCount":0,"inGeofence":false,"lat":32.403469,"lng":-82.073676,"countyID":"13043","msaID":null,"msaName":null},{"id":"13045","name":"Carroll County","geoLevel":"COUNTY","rank":412,"score":0.2982529692761659,"customerCount":0,"inGeofence":false,"lat":33.582815,"lng":-85.079757,"countyID":"13045","msaID":"12060","msaName":"Atlanta-Sandy Springs-Alpharetta, GA"},{"id":"13047","name":"Catoosa County","geoLevel":"COUNTY","rank":747,"score":0.260524889954474,"customerCount":0,"inGeofence":false,"lat":34.903671,"lng":-85.138245,"countyID":"13047","msaID":"16860","msaName":"Chattanooga, TN-GA"},{"id":"13049","name":"Charlton County","geoLevel":"COUNTY","rank":2213,"score":0.2045556060620471,"customerCount":0,"inGeofence":false,"lat":30.781729,"lng":-82.137684,"countyID":"13049","msaID":null,"msaName":null},{"id":"13051","name":"Chatham County","geoLevel":"COUNTY","rank":74,"score":0.6748687911898885,"customerCount":0,"inGeofence":false,"lat":32.004314,"lng":-81.132928,"countyID":"13051","msaID":"42340","msaName":"Savannah, GA"},{"id":"13053","name":"Chattahoochee County","geoLevel":"COUNTY","rank":665,"score":0.2686788293879772,"customerCount":0,"inGeofence":false,"lat":32.346984,"lng":-84.787054,"countyID":"13053","msaID":"17980","msaName":"Columbus, GA-AL"},{"id":"13055","name":"Chattooga County","geoLevel":"COUNTY","rank":1644,"score":0.2193775844465916,"customerCount":0,"inGeofence":false,"lat":34.475016,"lng":-85.345281,"countyID":"13055","msaID":null,"msaName":null},{"id":"13057","name":"Cherokee County","geoLevel":"COUNTY","rank":400,"score":0.30037001596744,"customerCount":0,"inGeofence":false,"lat":34.243944,"lng":-84.47621,"countyID":"13057","msaID":"12060","msaName":"Atlanta-Sandy Springs-Alpharetta, GA"},{"id":"13059","name":"Clarke County","geoLevel":"COUNTY","rank":103,"score":0.5395767334468131,"customerCount":0,"inGeofence":false,"lat":33.951188,"lng":-83.367345,"countyID":"13059","msaID":"12020","msaName":"Athens-Clarke County, GA"},{"id":"13061","name":"Clay County","geoLevel":"COUNTY","rank":1710,"score":0.2178803820846251,"customerCount":0,"inGeofence":false,"lat":31.626278,"lng":-84.980101,"countyID":"13061","msaID":null,"msaName":null},{"id":"13063","name":"Clayton County","geoLevel":"COUNTY","rank":40,"score":0.889937224414832,"customerCount":0,"inGeofence":false,"lat":33.541906,"lng":-84.357674,"countyID":"13063","msaID":"12060","msaName":"Atlanta-Sandy Springs-Alpharetta, GA"},{"id":"13065","name":"Clinch County","geoLevel":"COUNTY","rank":1701,"score":0.2180585140015255,"customerCount":0,"inGeofence":false,"lat":30.914949,"lng":-82.706232,"countyID":"13065","msaID":null,"msaName":null},{"id":"13067","name":"Cobb County","geoLevel":"COUNTY","rank":134,"score":0.4812063271290535,"customerCount":0,"inGeofence":false,"lat":33.941478,"lng":-84.576685,"countyID":"13067","msaID":"12060","msaName":"Atlanta-Sandy Springs-Alpharetta, GA"},{"id":"13069","name":"Coffee County","geoLevel":"COUNTY","rank":1620,"score":0.2200343756733124,"customerCount":0,"inGeofence":false,"lat":31.549274,"lng":-82.849202,"countyID":"13069","msaID":null,"msaName":null},{"id":"13071","name":"Colquitt County","geoLevel":"COUNTY","rank":1251,"score":0.2336576184476062,"customerCount":0,"inGeofence":false,"lat":31.188393,"lng":-83.768853,"countyID":"13071","msaID":null,"msaName":null},{"id":"13073","name":"Columbia County","geoLevel":"COUNTY","rank":393,"score":0.3017979057657607,"customerCount":0,"inGeofence":false,"lat":33.544128,"lng":-82.264099,"countyID":"13073","msaID":"12260","msaName":"Augusta-Richmond County, GA-SC"},{"id":"13075","name":"Cook County","geoLevel":"COUNTY","rank":1606,"score":0.2205403717919855,"customerCount":0,"inGeofence":false,"lat":31.154,"lng":-83.430472,"countyID":"13075","msaID":null,"msaName":null},{"id":"13077","name":"Coweta County","geoLevel":"COUNTY","rank":481,"score":0.2871067366139875,"customerCount":0,"inGeofence":false,"lat":33.353358,"lng":-84.763391,"countyID":"13077","msaID":"12060","msaName":"Atlanta-Sandy Springs-Alpharetta, GA"},{"id":"13079","name":"Crawford County","geoLevel":"COUNTY","rank":525,"score":0.2811618394954213,"customerCount":0,"inGeofence":false,"lat":32.71452,"lng":-83.986352,"countyID":"13079","msaID":"31420","msaName":"Macon-Bibb County, GA"},{"id":"13081","name":"Crisp County","geoLevel":"COUNTY","rank":1119,"score":0.2379852057702634,"customerCount":0,"inGeofence":false,"lat":31.922934,"lng":-83.768106,"countyID":"13081","msaID":null,"msaName":null},{"id":"13083","name":"Dade County","geoLevel":"COUNTY","rank":712,"score":0.2632552475730738,"customerCount":0,"inGeofence":false,"lat":34.854512,"lng":-85.504517,"countyID":"13083","msaID":"16860","msaName":"Chattanooga, TN-GA"},{"id":"13085","name":"Dawson County","geoLevel":"COUNTY","rank":686,"score":0.2659257424903256,"customerCount":0,"inGeofence":false,"lat":34.444317,"lng":-84.170659,"countyID":"13085","msaID":"12060","msaName":"Atlanta-Sandy Springs-Alpharetta, GA"},{"id":"13087","name":"Decatur County","geoLevel":"COUNTY","rank":907,"score":0.2516686206333128,"customerCount":0,"inGeofence":false,"lat":30.878345,"lng":-84.579068,"countyID":"13087","msaID":null,"msaName":null},{"id":"13089","name":"DeKalb County","geoLevel":"COUNTY","rank":56,"score":0.7836578868883934,"customerCount":0,"inGeofence":false,"lat":33.771552,"lng":-84.226447,"countyID":"13089","msaID":"12060","msaName":"Atlanta-Sandy Springs-Alpharetta, GA"},{"id":"13091","name":"Dodge County","geoLevel":"COUNTY","rank":1992,"score":0.2117216836925949,"customerCount":0,"inGeofence":false,"lat":32.172193,"lng":-83.168408,"countyID":"13091","msaID":null,"msaName":null},{"id":"13093","name":"Dooly County","geoLevel":"COUNTY","rank":1234,"score":0.2341042947313534,"customerCount":0,"inGeofence":false,"lat":32.157178,"lng":-83.79877,"countyID":"13093","msaID":null,"msaName":null},{"id":"13095","name":"Dougherty County","geoLevel":"COUNTY","rank":150,"score":0.455696182004777,"customerCount":0,"inGeofence":false,"lat":31.53338,"lng":-84.216263,"countyID":"13095","msaID":"10500","msaName":"Albany, GA"},{"id":"13097","name":"Douglas County","geoLevel":"COUNTY","rank":339,"score":0.3165251537894231,"customerCount":0,"inGeofence":false,"lat":33.701836,"lng":-84.767974,"countyID":"13097","msaID":"12060","msaName":"Atlanta-Sandy Springs-Alpharetta, GA"},{"id":"13099","name":"Early County","geoLevel":"COUNTY","rank":1172,"score":0.2360290922543394,"customerCount":0,"inGeofence":false,"lat":31.322842,"lng":-84.903644,"countyID":"13099","msaID":null,"msaName":null},{"id":"13101","name":"Echols County","geoLevel":"COUNTY","rank":963,"score":0.2474501883118381,"customerCount":0,"inGeofence":false,"lat":30.710104,"lng":-82.89394,"countyID":"13101","msaID":"46660","msaName":"Valdosta, GA"},{"id":"13103","name":"Effingham County","geoLevel":"COUNTY","rank":908,"score":0.2515107132853187,"customerCount":0,"inGeofence":false,"lat":32.367311,"lng":-81.341341,"countyID":"13103","msaID":"42340","msaName":"Savannah, GA"},{"id":"13105","name":"Elbert County","geoLevel":"COUNTY","rank":1120,"score":0.2379517384490253,"customerCount":0,"inGeofence":false,"lat":34.116801,"lng":-82.840095,"countyID":"13105","msaID":null,"msaName":null},{"id":"13107","name":"Emanuel County","geoLevel":"COUNTY","rank":1123,"score":0.2378709691425333,"customerCount":0,"inGeofence":false,"lat":32.589767,"lng":-82.301715,"countyID":"13107","msaID":null,"msaName":null},{"id":"13109","name":"Evans County","geoLevel":"COUNTY","rank":2280,"score":0.2026246093210024,"customerCount":0,"inGeofence":false,"lat":32.156755,"lng":-81.886886,"countyID":"13109","msaID":null,"msaName":null},{"id":"13111","name":"Fannin County","geoLevel":"COUNTY","rank":1028,"score":0.2429482354952494,"customerCount":0,"inGeofence":false,"lat":34.86412,"lng":-84.319885,"countyID":"13111","msaID":null,"msaName":null},{"id":"13113","name":"Fayette County","geoLevel":"COUNTY","rank":433,"score":0.2936038943184966,"customerCount":0,"inGeofence":false,"lat":33.413925,"lng":-84.49429,"countyID":"13113","msaID":"12060","msaName":"Atlanta-Sandy Springs-Alpharetta, GA"},{"id":"13115","name":"Floyd County","geoLevel":"COUNTY","rank":475,"score":0.2881717230083342,"customerCount":0,"inGeofence":false,"lat":34.263157,"lng":-85.214283,"countyID":"13115","msaID":"40660","msaName":"Rome, GA"},